Name,Rating,Number of Reviews,Category,Address,Lat/Long,Price,lat,long
bento-go-columbus,4,61,"[{'alias': 'asianfusion', 'title': 'Asian Fusion'}]","{'address1': '2226 Henderson Rd', 'address2': '', 'address3': '', 'city': 'Columbus', 'zip_code': '43220', 'country': 'US', 'state': 'OH', 'display_address': ['2226 Henderson Rd', 'Columbus, OH 43220']}","{'latitude': 40.0584886, 'longitude': -83.0782959}",$,40.0584886,-83.0782959
tiger-lily-columbus,4,61,"[{'alias': 'asianfusion', 'title': 'Asian Fusion'}, {'alias': 'japanese', 'title': 'Japanese'}, {'alias': 'chinese', 'title': 'Chinese'}]","{'address1': '19 E Gay St', 'address2': '', 'address3': None, 'city': 'Columbus', 'zip_code': '43215', 'country': 'US', 'state': 'OH', 'display_address': ['19 E Gay St', 'Columbus, OH 43215']}","{'latitude': 39.96356, 'longitude': -83.00021}",$$,39.96356,-83.00021
bao-bros-columbus,5,2,"[{'alias': 'asianfusion', 'title': 'Asian Fusion'}]","{'address1': '246 S 4th St', 'address2': '', 'address3': '', 'city': 'Columbus', 'zip_code': '43215', 'country': 'US', 'state': 'OH', 'display_address': ['246 S 4th St', 'Columbus, OH 43215']}","{'latitude': 39.9575807761317, 'longitude': -82.9950707374349}",No recorded price,39.95758078,-82.99507074
h-y-asian-cuisine-columbus,4,27,"[{'alias': 'chinese', 'title': 'Chinese'}, {'alias': 'japanese', 'title': 'Japanese'}, {'alias': 'asianfusion', 'title': 'Asian Fusion'}]","{'address1': '3011 Olentangy River Rd', 'address2': '', 'address3': None, 'city': 'Columbus', 'zip_code': '43202', 'country': 'US', 'state': 'OH', 'display_address': ['3011 Olentangy River Rd', 'Columbus, OH 43202']}","{'latitude': 40.0220353738857, 'longitude': -83.0256759149484}",$$,40.02203537,-83.02567591
ye-asian-bistro-columbus,4,42,"[{'alias': 'sushi', 'title': 'Sushi Bars'}, {'alias': 'asianfusion', 'title': 'Asian Fusion'}, {'alias': 'chinese', 'title': 'Chinese'}]","{'address1': '139 Graceland Blvd', 'address2': '', 'address3': None, 'city': 'Columbus', 'zip_code': '43214', 'country': 'US', 'state': 'OH', 'display_address': ['139 Graceland Blvd', 'Columbus, OH 43214']}","{'latitude': 40.0651412042474, 'longitude': -83.0230227900017}",$$,40.0651412,-83.02302279
bibibop-asian-grill-columbus-7,4,38,"[{'alias': 'korean', 'title': 'Korean'}, {'alias': 'asianfusion', 'title': 'Asian Fusion'}, {'alias': 'salad', 'title': 'Salad'}]","{'address1': '241 Easton Town Ctr', 'address2': '', 'address3': '', 'city': 'Columbus', 'zip_code': '43219', 'country': 'US', 'state': 'OH', 'display_address': ['241 Easton Town Ctr', 'Columbus, OH 43219']}","{'latitude': 40.050827, 'longitude': -82.915364}",$,40.050827,-82.915364
bibibop-asian-grill-columbus-9,4,33,"[{'alias': 'asianfusion', 'title': 'Asian Fusion'}, {'alias': 'salad', 'title': 'Salad'}, {'alias': 'korean', 'title': 'Korean'}]","{'address1': '6977 E Broad St', 'address2': '', 'address3': '', 'city': 'Columbus', 'zip_code': '43213', 'country': 'US', 'state': 'OH', 'display_address': ['6977 E Broad St', 'Columbus, OH 43213']}","{'latitude': 39.98208, 'longitude': -82.81658}",$,39.98208,-82.81658
chi-thai-columbus,3.5,116,"[{'alias': 'chinese', 'title': 'Chinese'}, {'alias': 'thai', 'title': 'Thai'}, {'alias': 'asianfusion', 'title': 'Asian Fusion'}]","{'address1': '5577 N Hamilton Rd', 'address2': '', 'address3': '', 'city': 'Columbus', 'zip_code': '43230', 'country': 'US', 'state': 'OH', 'display_address': ['5577 N Hamilton Rd', 'Columbus, OH 43230']}","{'latitude': 40.07002, 'longitude': -82.86408}",$$,40.07002,-82.86408
ichiban-columbus,3.5,29,"[{'alias': 'sushi', 'title': 'Sushi Bars'}, {'alias': 'japanese', 'title': 'Japanese'}, {'alias': 'asianfusion', 'title': 'Asian Fusion'}]","{'address1': '1560 Georgesville Square Dr', 'address2': '', 'address3': None, 'city': 'Columbus', 'zip_code': '43228', 'country': 'US', 'state': 'OH', 'display_address': ['1560 Georgesville Square Dr', 'Columbus, OH 43228']}","{'latitude': 39.9206428527832, 'longitude': -83.1229705810547}",$$,39.92064285,-83.12297058
lieus-asian-cuisine-columbus-3,4,41,"[{'alias': 'asianfusion', 'title': 'Asian Fusion'}, {'alias': 'chinese', 'title': 'Chinese'}, {'alias': 'vietnamese', 'title': 'Vietnamese'}]","{'address1': '5320 N High St', 'address2': '', 'address3': '', 'city': 'Columbus', 'zip_code': '43214', 'country': 'US', 'state': 'OH', 'display_address': ['5320 N High St', 'Columbus, OH 43214']}","{'latitude': 40.07089, 'longitude': -83.01866}",$,40.07089,-83.01866
kissho-asian-bistro-and-sushi-bar-columbus-2,4,45,"[{'alias': 'sushi', 'title': 'Sushi Bars'}, {'alias': 'asianfusion', 'title': 'Asian Fusion'}, {'alias': 'chinese', 'title': 'Chinese'}]","{'address1': '6823 E Broad St', 'address2': None, 'address3': '', 'city': 'Columbus', 'zip_code': '43213', 'country': 'US', 'state': 'OH', 'display_address': ['6823 E Broad St', 'Columbus, OH 43213']}","{'latitude': 39.9813776149132, 'longitude': -82.8216253308578}",$$,39.98137761,-82.82162533
bibibop-asian-grill-columbus-11,4,14,"[{'alias': 'asianfusion', 'title': 'Asian Fusion'}, {'alias': 'korean', 'title': 'Korean'}, {'alias': 'salad', 'title': 'Salad'}]","{'address1': '1778 N High St', 'address2': '', 'address3': '', 'city': 'Columbus', 'zip_code': '43201', 'country': 'US', 'state': 'OH', 'display_address': ['1778 N High St', 'Columbus, OH 43201']}","{'latitude': 39.9985549, 'longitude': -83.0074759}",$,39.9985549,-83.0074759
bibibop-asian-grill-columbus-10,4,29,"[{'alias': 'korean', 'title': 'Korean'}, {'alias': 'salad', 'title': 'Salad'}, {'alias': 'asianfusion', 'title': 'Asian Fusion'}]","{'address1': '6469 Sawmill Rd', 'address2': '', 'address3': '', 'city': 'Columbus', 'zip_code': '43235', 'country': 'US', 'state': 'OH', 'display_address': ['6469 Sawmill Rd', 'Columbus, OH 43235']}","{'latitude': 40.0987808731104, 'longitude': -83.091429707655}",$,40.09878087,-83.09142971
p-f-changs-columbus-2,3,113,"[{'alias': 'chinese', 'title': 'Chinese'}, {'alias': 'asianfusion', 'title': 'Asian Fusion'}, {'alias': 'gluten_free', 'title': 'Gluten-Free'}]","{'address1': '4040 Townsfair Way', 'address2': '', 'address3': '', 'city': 'Columbus', 'zip_code': '43219', 'country': 'US', 'state': 'OH', 'display_address': ['4040 Townsfair Way', 'Columbus, OH 43219']}","{'latitude': 40.0491560276995, 'longitude': -82.9134938120842}",$$,40.04915603,-82.91349381
bibibop-asian-grill-columbus,4,166,"[{'alias': 'asianfusion', 'title': 'Asian Fusion'}, {'alias': 'korean', 'title': 'Korean'}, {'alias': 'salad', 'title': 'Salad'}]","{'address1': '1270 W 5th Ave', 'address2': '', 'address3': '', 'city': 'Columbus', 'zip_code': '43212', 'country': 'US', 'state': 'OH', 'display_address': ['1270 W 5th Ave', 'Columbus, OH 43212']}","{'latitude': 39.9888519534978, 'longitude': -83.0398556908575}",$,39.98885195,-83.03985569
bibibop-asian-grill-columbus-6,3.5,83,"[{'alias': 'asianfusion', 'title': 'Asian Fusion'}, {'alias': 'korean', 'title': 'Korean'}, {'alias': 'salad', 'title': 'Salad'}]","{'address1': '1281 Polaris Pkwy', 'address2': '', 'address3': '', 'city': 'Columbus', 'zip_code': '43240', 'country': 'US', 'state': 'OH', 'display_address': ['1281 Polaris Pkwy', 'Columbus, OH 43240']}","{'latitude': 40.1411859419024, 'longitude': -82.9868963372889}",$,40.14118594,-82.98689634
menya-ramen-dublin-5,4.5,149,"[{'alias': 'ramen', 'title': 'Ramen'}, {'alias': 'asianfusion', 'title': 'Asian Fusion'}]","{'address1': '331 W Bridge St', 'address2': '', 'address3': '', 'city': 'Dublin', 'zip_code': '43017', 'country': 'US', 'state': 'OH', 'display_address': ['331 W Bridge St', 'Dublin, OH 43017']}","{'latitude': 40.0989222472042, 'longitude': -83.1231134107553}",$$,40.09892225,-83.12311341
mixing-bowl-asian-grill-columbus,4.5,6,"[{'alias': 'foodtrucks', 'title': 'Food Trucks'}, {'alias': 'korean', 'title': 'Korean'}, {'alias': 'asianfusion', 'title': 'Asian Fusion'}]","{'address1': '160 S High St', 'address2': '', 'address3': '', 'city': 'Columbus', 'zip_code': '43215', 'country': 'US', 'state': 'OH', 'display_address': ['160 S High St', 'Columbus, OH 43215']}","{'latitude': 39.9588776887528, 'longitude': -82.9997178982313}",$,39.95887769,-82.9997179
eastern-palace-columbus,4,26,"[{'alias': 'sushi', 'title': 'Sushi Bars'}, {'alias': 'noodles', 'title': 'Noodles'}, {'alias': 'asianfusion', 'title': 'Asian Fusion'}]","{'address1': '6078 E Livingston Ave', 'address2': '', 'address3': '', 'city': 'Columbus', 'zip_code': '43232', 'country': 'US', 'state': 'OH', 'display_address': ['6078 E Livingston Ave', 'Columbus, OH 43232']}","{'latitude': 39.94257, 'longitude': -82.8318199}",$$,39.94257,-82.8318199
royal-ginger-columbus,3.5,157,"[{'alias': 'sushi', 'title': 'Sushi Bars'}, {'alias': 'asianfusion', 'title': 'Asian Fusion'}, {'alias': 'chinese', 'title': 'Chinese'}]","{'address1': '8591 Sancus Blvd', 'address2': '', 'address3': '', 'city': 'Columbus', 'zip_code': '43240', 'country': 'US', 'state': 'OH', 'display_address': ['8591 Sancus Blvd', 'Columbus, OH 43240']}","{'latitude': 40.13833, 'longitude': -82.99261}",$$,40.13833,-82.99261
lemon-grass-fusion-bistro-columbus,3.5,331,"[{'alias': 'sushi', 'title': 'Sushi Bars'}, {'alias': 'asianfusion', 'title': 'Asian Fusion'}, {'alias': 'thai', 'title': 'Thai'}]","{'address1': '641 N High St', 'address2': 'Ste 103', 'address3': '', 'city': 'Columbus', 'zip_code': '43215', 'country': 'US', 'state': 'OH', 'display_address': ['641 N High St', 'Ste 103', 'Columbus, OH 43215']}","{'latitude': 39.975306, 'longitude': -83.003307}",$$,39.975306,-83.003307
bds-mongolian-grill-columbus,3,91,"[{'alias': 'mongolian', 'title': 'Mongolian'}, {'alias': 'vegetarian', 'title': 'Vegetarian'}, {'alias': 'asianfusion', 'title': 'Asian Fusion'}]","{'address1': '295 Marconi Blvd', 'address2': '', 'address3': '', 'city': 'Columbus', 'zip_code': '43215', 'country': 'US', 'state': 'OH', 'display_address': ['295 Marconi Blvd', 'Columbus, OH 43215']}","{'latitude': 39.96803, 'longitude': -83.00551}",$$,39.96803,-83.00551
bibibop-asian-grill-columbus-2,4,83,"[{'alias': 'asianfusion', 'title': 'Asian Fusion'}, {'alias': 'salad', 'title': 'Salad'}, {'alias': 'korean', 'title': 'Korean'}]","{'address1': '1836 W Henderson Rd', 'address2': '', 'address3': '', 'city': 'Columbus', 'zip_code': '43220', 'country': 'US', 'state': 'OH', 'display_address': ['1836 W Henderson Rd', 'Columbus, OH 43220']}","{'latitude': 40.0550611987399, 'longitude': -83.0691164674122}",$,40.0550612,-83.06911647
thai-mango-asian-bistro-columbus,3.5,66,"[{'alias': 'asianfusion', 'title': 'Asian Fusion'}, {'alias': 'thai', 'title': 'Thai'}, {'alias': 'chinese', 'title': 'Chinese'}]","{'address1': '2548 Bethel Rd', 'address2': '', 'address3': '', 'city': 'Columbus', 'zip_code': '43235', 'country': 'US', 'state': 'OH', 'display_address': ['2548 Bethel Rd', 'Columbus, OH 43235']}","{'latitude': 40.0665650365743, 'longitude': -83.0873948335648}",$,40.06656504,-83.08739483
hc-way-columbus,3.5,52,"[{'alias': 'chinese', 'title': 'Chinese'}, {'alias': 'asianfusion', 'title': 'Asian Fusion'}]","{'address1': '171 E Campus View Blvd', 'address2': '', 'address3': '', 'city': 'Columbus', 'zip_code': '43235', 'country': 'US', 'state': 'OH', 'display_address': ['171 E Campus View Blvd', 'Columbus, OH 43235']}","{'latitude': 40.1179736915808, 'longitude': -83.0110889398811}",$,40.11797369,-83.01108894
siam-hibachi-grove-city,4.5,35,"[{'alias': 'steak', 'title': 'Steakhouses'}, {'alias': 'thai', 'title': 'Thai'}, {'alias': 'asianfusion', 'title': 'Asian Fusion'}]","{'address1': '2257 Stringtown Rd', 'address2': '', 'address3': '', 'city': 'Grove City', 'zip_code': '43123', 'country': 'US', 'state': 'OH', 'display_address': ['2257 Stringtown Rd', 'Grove City, OH 43123']}","{'latitude': 39.878, 'longitude': -83.06318}",$,39.878,-83.06318
china-dynasty-columbus-2,3.5,81,"[{'alias': 'chinese', 'title': 'Chinese'}, {'alias': 'buffets', 'title': 'Buffets'}, {'alias': 'asianfusion', 'title': 'Asian Fusion'}]","{'address1': '1689 W Lane Ave', 'address2': '', 'address3': '', 'city': 'Columbus', 'zip_code': '43221', 'country': 'US', 'state': 'OH', 'display_address': ['1689 W Lane Ave', 'Columbus, OH 43221']}","{'latitude': 40.00638428864, 'longitude': -83.0557665505121}",$$,40.00638429,-83.05576655
hc-way-columbus-4,3.5,25,"[{'alias': 'asianfusion', 'title': 'Asian Fusion'}, {'alias': 'chinese', 'title': 'Chinese'}]","{'address1': '769 Bethel Rd', 'address2': 'B', 'address3': '', 'city': 'Columbus', 'zip_code': '43214', 'country': 'US', 'state': 'OH', 'display_address': ['769 Bethel Rd', 'B', 'Columbus, OH 43214']}","{'latitude': 40.0622153049132, 'longitude': -83.0412235172313}",$,40.0622153,-83.04122352
royal-ginger-asian-fusion-bistro-columbus,3,124,"[{'alias': 'asianfusion', 'title': 'Asian Fusion'}, {'alias': 'japanese', 'title': 'Japanese'}, {'alias': 'chinese', 'title': 'Chinese'}]","{'address1': '1625 W Lane Ave', 'address2': '', 'address3': '', 'city': 'Columbus', 'zip_code': '43221', 'country': 'US', 'state': 'OH', 'display_address': ['1625 W Lane Ave', 'Columbus, OH 43221']}","{'latitude': 40.0070209, 'longitude': -83.053755}",$$,40.0070209,-83.053755
zen-noodle-at-hollywood-casino-columbus,3,5,"[{'alias': 'asianfusion', 'title': 'Asian Fusion'}, {'alias': 'chinese', 'title': 'Chinese'}]","{'address1': '200 Georgesville Rd', 'address2': '', 'address3': '', 'city': 'Columbus', 'zip_code': '43228', 'country': 'US', 'state': 'OH', 'display_address': ['200 Georgesville Rd', 'Columbus, OH 43228']}","{'latitude': 39.9174796116659, 'longitude': -83.1416039541364}",$$,39.91747961,-83.14160395
mark-pis-columbus,5,1,"[{'alias': 'asianfusion', 'title': 'Asian Fusion'}]","{'address1': '2740 Eastland 2', 'address2': '', 'address3': '', 'city': 'Columbus', 'zip_code': '43232', 'country': 'US', 'state': 'OH', 'display_address': ['2740 Eastland 2', 'Columbus, OH 43232']}","{'latitude': 39.9186211, 'longitude': -82.8874435}",No recorded price,39.9186211,-82.8874435
asian-taste-new-albany,4,59,"[{'alias': 'asianfusion', 'title': 'Asian Fusion'}]","{'address1': '5505 New Albany Rd W', 'address2': '', 'address3': '', 'city': 'New Albany', 'zip_code': '43054', 'country': 'US', 'state': 'OH', 'display_address': ['5505 New Albany Rd W', 'New Albany, OH 43054']}","{'latitude': 40.0945476693674, 'longitude': -82.8260169523999}",$$,40.09454767,-82.82601695
hc-way-columbus-3,4,15,"[{'alias': 'chinese', 'title': 'Chinese'}, {'alias': 'asianfusion', 'title': 'Asian Fusion'}]","{'address1': '2107 Polaris Pkwy', 'address2': None, 'address3': '', 'city': 'Columbus', 'zip_code': '43240', 'country': 'US', 'state': 'OH', 'display_address': ['2107 Polaris Pkwy', 'Columbus, OH 43240']}","{'latitude': 40.1442795, 'longitude': -82.9606628}",$,40.1442795,-82.9606628
michaels-hibachi-grove-city,4,26,"[{'alias': 'asianfusion', 'title': 'Asian Fusion'}]","{'address1': '3985 Broadway', 'address2': '', 'address3': '', 'city': 'Grove City', 'zip_code': '43123', 'country': 'US', 'state': 'OH', 'display_address': ['3985 Broadway', 'Grove City, OH 43123']}","{'latitude': 39.88293, 'longitude': -83.09323}",$,39.88293,-83.09323
sesame-sea-asian-bistro-dublin,4.5,138,"[{'alias': 'chinese', 'title': 'Chinese'}, {'alias': 'asianfusion', 'title': 'Asian Fusion'}]","{'address1': '7106 Muirfield Dr', 'address2': '', 'address3': '', 'city': 'Dublin', 'zip_code': '43017', 'country': 'US', 'state': 'OH', 'display_address': ['7106 Muirfield Dr', 'Dublin, OH 43017']}","{'latitude': 40.11261, 'longitude': -83.15308}",$$,40.11261,-83.15308
saigon-asian-bistro-lewis-center,4,109,"[{'alias': 'asianfusion', 'title': 'Asian Fusion'}, {'alias': 'chinese', 'title': 'Chinese'}, {'alias': 'vietnamese', 'title': 'Vietnamese'}]","{'address1': '50 Neverland Dr', 'address2': '', 'address3': '', 'city': 'Lewis Center', 'zip_code': '43035', 'country': 'US', 'state': 'OH', 'display_address': ['50 Neverland Dr', 'Lewis Center, OH 43035']}","{'latitude': 40.1589161876444, 'longitude': -83.0203093816147}",$$,40.15891619,-83.02030938
bibibop-asian-grill-columbus-12,4.5,4,"[{'alias': 'asianfusion', 'title': 'Asian Fusion'}, {'alias': 'salad', 'title': 'Salad'}, {'alias': 'korean', 'title': 'Korean'}]","{'address1': '5037 N High St', 'address2': '', 'address3': None, 'city': 'Columbus', 'zip_code': '43214', 'country': 'US', 'state': 'OH', 'display_address': ['5037 N High St', 'Columbus, OH 43214']}","{'latitude': 40.06456, 'longitude': -83.02023}",$$,40.06456,-83.02023
great-asian-restaurant-westerville-2,4,64,"[{'alias': 'asianfusion', 'title': 'Asian Fusion'}, {'alias': 'chinese', 'title': 'Chinese'}]","{'address1': '1176 County Line Rd', 'address2': '', 'address3': '', 'city': 'Westerville', 'zip_code': '43081', 'country': 'US', 'state': 'OH', 'display_address': ['1176 County Line Rd', 'Westerville, OH 43081']}","{'latitude': 40.132289068852, 'longitude': -82.8875417634845}",$$,40.13228907,-82.88754176
j-liu-restaurant-and-bar-worthington,3,105,"[{'alias': 'asianfusion', 'title': 'Asian Fusion'}]","{'address1': '6880 N High St', 'address2': '', 'address3': None, 'city': 'Worthington', 'zip_code': '43085', 'country': 'US', 'state': 'OH', 'display_address': ['6880 N High St', 'Worthington, OH 43085']}","{'latitude': 40.10451, 'longitude': -83.01708}",$$,40.10451,-83.01708
ty-ginger-asian-bistro-dublin,4,110,"[{'alias': 'asianfusion', 'title': 'Asian Fusion'}, {'alias': 'chinese', 'title': 'Chinese'}, {'alias': 'thai', 'title': 'Thai'}]","{'address1': '5689 Woerner Temple Rd', 'address2': '', 'address3': '', 'city': 'Dublin', 'zip_code': '43016', 'country': 'US', 'state': 'OH', 'display_address': ['5689 Woerner Temple Rd', 'Dublin, OH 43016']}","{'latitude': 40.0841224040013, 'longitude': -83.1427492477394}",$$,40.0841224,-83.14274925
midway-on-high-columbus,2,13,"[{'alias': 'bars', 'title': 'Bars'}, {'alias': 'asianfusion', 'title': 'Asian Fusion'}, {'alias': 'sushi', 'title': 'Sushi Bars'}]","{'address1': '1728 N High St', 'address2': '', 'address3': '', 'city': 'Columbus', 'zip_code': '43201', 'country': 'US', 'state': 'OH', 'display_address': ['1728 N High St', 'Columbus, OH 43201']}","{'latitude': 39.997665, 'longitude': -83.007126}",$,39.997665,-83.007126
bibibop-asian-grill-reynoldsburg,4,11,"[{'alias': 'korean', 'title': 'Korean'}, {'alias': 'asianfusion', 'title': 'Asian Fusion'}, {'alias': 'salad', 'title': 'Salad'}]","{'address1': '2087 Baltimore Reynoldsburg Rd', 'address2': '', 'address3': '', 'city': 'Reynoldsburg', 'zip_code': '43068', 'country': 'US', 'state': 'OH', 'display_address': ['2087 Baltimore Reynoldsburg Rd', 'Reynoldsburg, OH 43068']}","{'latitude': 39.940965, 'longitude': -82.792878}",$$,39.940965,-82.792878
p-f-changs-dublin,3,77,"[{'alias': 'chinese', 'title': 'Chinese'}, {'alias': 'asianfusion', 'title': 'Asian Fusion'}, {'alias': 'gluten_free', 'title': 'Gluten-Free'}]","{'address1': '6135 Parkcenter Cir', 'address2': '', 'address3': 'Dublin-Tuttle Crossing', 'city': 'Dublin', 'zip_code': '43017', 'country': 'US', 'state': 'OH', 'display_address': ['6135 Parkcenter Cir', 'Dublin-Tuttle Crossing', 'Dublin, OH 43017']}","{'latitude': 40.0772299627885, 'longitude': -83.132831454277}",$$,40.07722996,-83.13283145
mark-pis-express-columbus,1,1,"[{'alias': 'asianfusion', 'title': 'Asian Fusion'}]","{'address1': '1739 N High St', 'address2': '', 'address3': '', 'city': 'Columbus', 'zip_code': '43210', 'country': 'US', 'state': 'OH', 'display_address': ['1739 N High St', 'Columbus, OH 43210']}","{'latitude': 39.99786, 'longitude': -83.0078354}",No recorded price,39.99786,-83.0078354
blue-ginger-asian-fusion-bistro-dublin,3.5,129,"[{'alias': 'asianfusion', 'title': 'Asian Fusion'}, {'alias': 'sushi', 'title': 'Sushi Bars'}]","{'address1': '6234 Sawmill Rd', 'address2': '', 'address3': '', 'city': 'Dublin', 'zip_code': '43017', 'country': 'US', 'state': 'OH', 'display_address': ['6234 Sawmill Rd', 'Dublin, OH 43017']}","{'latitude': 40.09234, 'longitude': -83.09101}",$$,40.09234,-83.09101
buckeye-asian-express-columbus,3,16,"[{'alias': 'chinese', 'title': 'Chinese'}, {'alias': 'asianfusion', 'title': 'Asian Fusion'}]","{'address1': '4402 Indianola Ave', 'address2': '', 'address3': '', 'city': 'Columbus', 'zip_code': '43214', 'country': 'US', 'state': 'OH', 'display_address': ['4402 Indianola Ave', 'Columbus, OH 43214']}","{'latitude': 40.05462, 'longitude': -83.00001}",$,40.05462,-83.00001
q2-china-bistro-westerville,4,56,"[{'alias': 'asianfusion', 'title': 'Asian Fusion'}, {'alias': 'chinese', 'title': 'Chinese'}]","{'address1': '472 Polaris Pkwy', 'address2': '', 'address3': '', 'city': 'Westerville', 'zip_code': '43082', 'country': 'US', 'state': 'OH', 'display_address': ['472 Polaris Pkwy', 'Westerville, OH 43082']}","{'latitude': 40.14621, 'longitude': -82.94542}",$$,40.14621,-82.94542
madina-restaurant-columbus-2,2.5,2,"[{'alias': 'soulfood', 'title': 'Soul Food'}, {'alias': 'asianfusion', 'title': 'Asian Fusion'}, {'alias': 'african', 'title': 'African'}]","{'address1': '3116 S Hamilton Rd', 'address2': '', 'address3': '', 'city': 'Columbus', 'zip_code': '43232', 'country': 'US', 'state': 'OH', 'display_address': ['3116 S Hamilton Rd', 'Columbus, OH 43232']}","{'latitude': 39.9126014709473, 'longitude': -82.8797988891602}",$,39.91260147,-82.87979889
windchimes-chinese-restaurant-dublin,3.5,79,"[{'alias': 'chinese', 'title': 'Chinese'}, {'alias': 'asianfusion', 'title': 'Asian Fusion'}]","{'address1': '5742 Frantz Rd', 'address2': '', 'address3': '', 'city': 'Dublin', 'zip_code': '43016', 'country': 'US', 'state': 'OH', 'display_address': ['5742 Frantz Rd', 'Dublin, OH 43016']}","{'latitude': 40.0701332, 'longitude': -83.1191256}",$$,40.0701332,-83.1191256
kogens-powell,3,78,"[{'alias': 'sushi', 'title': 'Sushi Bars'}, {'alias': 'asianfusion', 'title': 'Asian Fusion'}]","{'address1': '9711 Sawmill Pkwy', 'address2': 'Ste H', 'address3': '', 'city': 'Powell', 'zip_code': '43065', 'country': 'US', 'state': 'OH', 'display_address': ['9711 Sawmill Pkwy', 'Ste H', 'Powell, OH 43065']}","{'latitude': 40.1569, 'longitude': -83.09061}",$$,40.1569,-83.09061
asian-garden-buffet-lewis-center,2.5,36,"[{'alias': 'chinese', 'title': 'Chinese'}, {'alias': 'asianfusion', 'title': 'Asian Fusion'}, {'alias': 'buffets', 'title': 'Buffets'}]","{'address1': '8633 Columbus Pike', 'address2': '', 'address3': '', 'city': 'Lewis Center', 'zip_code': '43035', 'country': 'US', 'state': 'OH', 'display_address': ['8633 Columbus Pike', 'Lewis Center, OH 43035']}","{'latitude': 40.1648709923029, 'longitude': -83.0197910964489}",$,40.16487099,-83.0197911
shanghai-lily-dublin,3,17,"[{'alias': 'chinese', 'title': 'Chinese'}, {'alias': 'asianfusion', 'title': 'Asian Fusion'}]","{'address1': '6161 Glick Rd', 'address2': '', 'address3': '', 'city': 'Dublin', 'zip_code': '43017', 'country': 'US', 'state': 'OH', 'display_address': ['6161 Glick Rd', 'Dublin, OH 43017']}","{'latitude': 40.1533014455457, 'longitude': -83.1310343742371}",$$,40.15330145,-83.13103437
b-and-k-smoke-house-columbus,4.5,143,"[{'alias': 'bbq', 'title': 'Barbeque'}]","{'address1': '1114 E Main St', 'address2': '', 'address3': '', 'city': 'Columbus', 'zip_code': '43205', 'country': 'US', 'state': 'OH', 'display_address': ['1114 E Main St', 'Columbus, OH 43205']}","{'latitude': 39.9578515, 'longitude': -82.9695756}",$$,39.9578515,-82.9695756
ray-rays-hog-pit-columbus-2,4.5,311,"[{'alias': 'bbq', 'title': 'Barbeque'}, {'alias': 'foodtrucks', 'title': 'Food Trucks'}]","{'address1': '2619 N High St', 'address2': None, 'address3': '', 'city': 'Columbus', 'zip_code': '43202', 'country': 'US', 'state': 'OH', 'display_address': ['2619 N High St', 'Columbus, OH 43202']}","{'latitude': 40.0156875852615, 'longitude': -83.0117940480072}",$,40.01568759,-83.01179405
od-on-bbq-columbus-2,4.5,37,"[{'alias': 'bbq', 'title': 'Barbeque'}, {'alias': 'foodstands', 'title': 'Food Stands'}]","{'address1': 'Smith Farm Market', 'address2': '', 'address3': '3341 Winchester Pike', 'city': 'Columbus', 'zip_code': '43232', 'country': 'US', 'state': 'OH', 'display_address': ['Smith Farm Market', '3341 Winchester Pike', 'Columbus, OH 43232']}","{'latitude': 39.908038, 'longitude': -82.900661}",$,39.908038,-82.900661
smoked-on-high-bbq-columbus,4.5,26,"[{'alias': 'bbq', 'title': 'Barbeque'}, {'alias': 'beerbar', 'title': 'Beer Bar'}, {'alias': 'sandwiches', 'title': 'Sandwiches'}]","{'address1': '755 S High St', 'address2': '', 'address3': None, 'city': 'Columbus', 'zip_code': '43206', 'country': 'US', 'state': 'OH', 'display_address': ['755 S High St', 'Columbus, OH 43206']}","{'latitude': 39.946644, 'longitude': -82.998144}",$$,39.946644,-82.998144
red-door-bbq-columbus,4.5,12,"[{'alias': 'bbq', 'title': 'Barbeque'}, {'alias': 'popuprestaurants', 'title': 'Pop-Up Restaurants'}, {'alias': 'tradamerican', 'title': 'American (Traditional)'}]","{'address1': '177 S Cypress Ave', 'address2': None, 'address3': '', 'city': 'Columbus', 'zip_code': '43223', 'country': 'US', 'state': 'OH', 'display_address': ['177 S Cypress Ave', 'Columbus, OH 43223']}","{'latitude': 39.95518, 'longitude': -83.02868}",$,39.95518,-83.02868
the-pit-bbq-grille-columbus,4,27,"[{'alias': 'bbq', 'title': 'Barbeque'}]","{'address1': '3545 Cleveland Ave', 'address2': '', 'address3': None, 'city': 'Columbus', 'zip_code': '43224', 'country': 'US', 'state': 'OH', 'display_address': ['3545 Cleveland Ave', 'Columbus, OH 43224']}","{'latitude': 40.03995, 'longitude': -82.96281}",$$,40.03995,-82.96281
city-barbeque-columbus-12,4,59,"[{'alias': 'bbq', 'title': 'Barbeque'}, {'alias': 'catering', 'title': 'Caterers'}]","{'address1': '5979 E Main St', 'address2': '', 'address3': '', 'city': 'Columbus', 'zip_code': '43232', 'country': 'US', 'state': 'OH', 'display_address': ['5979 E Main St', 'Columbus, OH 43232']}","{'latitude': 39.9541931152344, 'longitude': -82.8390884399414}",$$,39.95419312,-82.83908844
so-gong-dong-tofu-and-korean-bbq-columbus,4.5,17,"[{'alias': 'korean', 'title': 'Korean'}, {'alias': 'bbq', 'title': 'Barbeque'}]","{'address1': '2950 Hayden Rd', 'address2': None, 'address3': '', 'city': 'Columbus', 'zip_code': '43235', 'country': 'US', 'state': 'OH', 'display_address': ['2950 Hayden Rd', 'Columbus, OH 43235']}","{'latitude': 40.0664332, 'longitude': -83.0975265}",$$,40.0664332,-83.0975265
iron-grill-bbq-and-brew-columbus,3.5,102,"[{'alias': 'bbq', 'title': 'Barbeque'}, {'alias': 'burgers', 'title': 'Burgers'}, {'alias': 'tradamerican', 'title': 'American (Traditional)'}]","{'address1': '5295 N High St', 'address2': '', 'address3': '', 'city': 'Columbus', 'zip_code': '43214', 'country': 'US', 'state': 'OH', 'display_address': ['5295 N High St', 'Columbus, OH 43214']}","{'latitude': 40.070484161377, 'longitude': -83.0195465087891}",$$,40.07048416,-83.01954651
barrel-and-boar-gahanna-2,4,95,"[{'alias': 'bbq', 'title': 'Barbeque'}, {'alias': 'bars', 'title': 'Bars'}, {'alias': 'breakfast_brunch', 'title': 'Breakfast & Brunch'}]","{'address1': '121 Mill St', 'address2': '', 'address3': 'Creekside Plz', 'city': 'Gahanna', 'zip_code': '43230', 'country': 'US', 'state': 'OH', 'display_address': ['121 Mill St', 'Creekside Plz', 'Gahanna, OH 43230']}","{'latitude': 40.02075, 'longitude': -82.87968}",$$,40.02075,-82.87968
smoke-out-bbq-columbus-2,4.5,16,"[{'alias': 'foodtrucks', 'title': 'Food Trucks'}, {'alias': 'bbq', 'title': 'Barbeque'}]","{'address1': '', 'address2': None, 'address3': '', 'city': 'Columbus', 'zip_code': '43214', 'country': 'US', 'state': 'OH', 'display_address': ['Columbus, OH 43214']}","{'latitude': 40.106173, 'longitude': -82.8634299}",$,40.106173,-82.8634299
the-hickory-house-gahanna,4,122,"[{'alias': 'steak', 'title': 'Steakhouses'}, {'alias': 'bbq', 'title': 'Barbeque'}, {'alias': 'seafood', 'title': 'Seafood'}]","{'address1': '550 Officenter Pl', 'address2': '', 'address3': '', 'city': 'Gahanna', 'zip_code': '43230', 'country': 'US', 'state': 'OH', 'display_address': ['550 Officenter Pl', 'Gahanna, OH 43230']}","{'latitude': 40.00391, 'longitude': -82.86099}",$$,40.00391,-82.86099
city-barbeque-columbus-4,4,195,"[{'alias': 'bbq', 'title': 'Barbeque'}, {'alias': 'catering', 'title': 'Caterers'}]","{'address1': '2111 W Henderson Rd', 'address2': '', 'address3': '', 'city': 'Columbus', 'zip_code': '43220', 'country': 'US', 'state': 'OH', 'display_address': ['2111 W Henderson Rd', 'Columbus, OH 43220']}","{'latitude': 40.0569343566895, 'longitude': -83.0759811401367}",$$,40.05693436,-83.07598114
jps-barbeque-ribs-and-chicken-columbus-2,3,19,"[{'alias': 'bbq', 'title': 'Barbeque'}]","{'address1': '2000 Norton Rd', 'address2': '', 'address3': 'Bolton Field', 'city': 'Columbus', 'zip_code': '43228', 'country': 'US', 'state': 'OH', 'display_address': ['2000 Norton Rd', 'Bolton Field', 'Columbus, OH 43228']}","{'latitude': 39.9084604, 'longitude': -83.1442032}",$$,39.9084604,-83.1442032
trophy-bbq-columbus,4,1,"[{'alias': 'southern', 'title': 'Southern'}, {'alias': 'bbq', 'title': 'Barbeque'}]","{'address1': '3377 E Main St', 'address2': '', 'address3': '', 'city': 'Columbus', 'zip_code': '43213', 'country': 'US', 'state': 'OH', 'display_address': ['3377 E Main St', 'Columbus, OH 43213']}","{'latitude': 39.9560966491699, 'longitude': -82.9079513549805}",No recorded price,39.95609665,-82.90795135
city-barbeque-columbus-5,4,73,"[{'alias': 'bbq', 'title': 'Barbeque'}, {'alias': 'catering', 'title': 'Caterers'}]","{'address1': '8491 Sancus Boulevard', 'address2': '', 'address3': None, 'city': 'Columbus', 'zip_code': '43240', 'country': 'US', 'state': 'OH', 'display_address': ['8491 Sancus Boulevard', 'Columbus, OH 43240']}","{'latitude': 40.13737, 'longitude': -82.99218}",$$,40.13737,-82.99218
lawsheas-southern-fish-and-ribs-columbus,3,33,"[{'alias': 'bbq', 'title': 'Barbeque'}, {'alias': 'seafood', 'title': 'Seafood'}]","{'address1': '1488 Morse Rd', 'address2': None, 'address3': None, 'city': 'Columbus', 'zip_code': '43229', 'country': 'US', 'state': 'OH', 'display_address': ['1488 Morse Rd', 'Columbus, OH 43229']}","{'latitude': 40.0617162373125, 'longitude': -82.9796567226492}",$,40.06171624,-82.97965672
the-barn-at-rocky-fork-creek-gahanna-2,3.5,197,"[{'alias': 'steak', 'title': 'Steakhouses'}, {'alias': 'bbq', 'title': 'Barbeque'}, {'alias': 'seafood', 'title': 'Seafood'}]","{'address1': '1370 E Johnstown Rd', 'address2': '', 'address3': '', 'city': 'Gahanna', 'zip_code': '43230', 'country': 'US', 'state': 'OH', 'display_address': ['1370 E Johnstown Rd', 'Gahanna, OH 43230']}","{'latitude': 40.0532159, 'longitude': -82.8425899}",$$$,40.0532159,-82.8425899
high-beck-tavern-columbus,3.5,67,"[{'alias': 'divebars', 'title': 'Dive Bars'}, {'alias': 'burgers', 'title': 'Burgers'}, {'alias': 'bbq', 'title': 'Barbeque'}]","{'address1': '564 S High St', 'address2': '', 'address3': '', 'city': 'Columbus', 'zip_code': '43215', 'country': 'US', 'state': 'OH', 'display_address': ['564 S High St', 'Columbus, OH 43215']}","{'latitude': 39.95057, 'longitude': -82.99817}",$,39.95057,-82.99817
texas-roadhouse-columbus-5,3.5,59,"[{'alias': 'steak', 'title': 'Steakhouses'}, {'alias': 'bbq', 'title': 'Barbeque'}, {'alias': 'tradamerican', 'title': 'American (Traditional)'}]","{'address1': '1770 Hilliard-Rome Rd', 'address2': '', 'address3': '', 'city': 'Columbus', 'zip_code': '43026', 'country': 'US', 'state': 'OH', 'display_address': ['1770 Hilliard-Rome Rd', 'Columbus, OH 43026']}","{'latitude': 39.987471, 'longitude': -83.15054}",$$,39.987471,-83.15054
kennys-barbecue-columbus,4,2,"[{'alias': 'bbq', 'title': 'Barbeque'}]","{'address1': '1580 Joyce Ave', 'address2': '', 'address3': '', 'city': 'Columbus', 'zip_code': '43211', 'country': 'US', 'state': 'OH', 'display_address': ['1580 Joyce Ave', 'Columbus, OH 43211']}","{'latitude': 39.99955, 'longitude': -82.965168}",$,39.99955,-82.965168
the-hickory-house-reynoldsburg,3.5,68,"[{'alias': 'tradamerican', 'title': 'American (Traditional)'}, {'alias': 'bbq', 'title': 'Barbeque'}, {'alias': 'steak', 'title': 'Steakhouses'}]","{'address1': '7051 E Main St', 'address2': '', 'address3': '', 'city': 'Reynoldsburg', 'zip_code': '43068', 'country': 'US', 'state': 'OH', 'display_address': ['7051 E Main St', 'Reynoldsburg, OH 43068']}","{'latitude': 39.95442, 'longitude': -82.8094}",$$,39.95442,-82.8094
texas-roadhouse-columbus-4,3,30,"[{'alias': 'steak', 'title': 'Steakhouses'}, {'alias': 'bbq', 'title': 'Barbeque'}, {'alias': 'tradamerican', 'title': 'American (Traditional)'}]","{'address1': '5940 E Main St', 'address2': '', 'address3': '', 'city': 'Columbus', 'zip_code': '43213', 'country': 'US', 'state': 'OH', 'display_address': ['5940 E Main St', 'Columbus, OH 43213']}","{'latitude': 39.9551992, 'longitude': -82.8406043}",$$,39.9551992,-82.8406043
texas-roadhouse-columbus-3,3.5,67,"[{'alias': 'bbq', 'title': 'Barbeque'}, {'alias': 'tradamerican', 'title': 'American (Traditional)'}, {'alias': 'steak', 'title': 'Steakhouses'}]","{'address1': '8440 Lyra Dr', 'address2': '', 'address3': '', 'city': 'Columbus', 'zip_code': '43240', 'country': 'US', 'state': 'OH', 'display_address': ['8440 Lyra Dr', 'Columbus, OH 43240']}","{'latitude': 40.1402397, 'longitude': -82.973259}",$$,40.1402397,-82.973259
hoggys-restaurant-and-catering-columbus,3,56,"[{'alias': 'tradamerican', 'title': 'American (Traditional)'}, {'alias': 'bbq', 'title': 'Barbeque'}, {'alias': 'chicken_wings', 'title': 'Chicken Wings'}]","{'address1': '830 Bethel Rd', 'address2': '', 'address3': '', 'city': 'Columbus', 'zip_code': '43214', 'country': 'US', 'state': 'OH', 'display_address': ['830 Bethel Rd', 'Columbus, OH 43214']}","{'latitude': 40.063548, 'longitude': -83.040982}",$,40.063548,-83.040982
city-barbeque-grove-city,4,60,"[{'alias': 'bbq', 'title': 'Barbeque'}, {'alias': 'chicken_wings', 'title': 'Chicken Wings'}, {'alias': 'salad', 'title': 'Salad'}]","{'address1': '2261 Stringtown Road', 'address2': '', 'address3': '', 'city': 'Grove City', 'zip_code': '43123', 'country': 'US', 'state': 'OH', 'display_address': ['2261 Stringtown Road', 'Grove City, OH 43123']}","{'latitude': 39.8779707713687, 'longitude': -83.0633354187012}",$$,39.87797077,-83.06333542
big-daddys-bbq-columbus,5,4,"[{'alias': 'foodtrucks', 'title': 'Food Trucks'}, {'alias': 'tradamerican', 'title': 'American (Traditional)'}, {'alias': 'bbq', 'title': 'Barbeque'}]","{'address1': '1944 Morse Rd', 'address2': None, 'address3': None, 'city': 'Columbus', 'zip_code': '43224', 'country': 'US', 'state': 'OH', 'display_address': ['1944 Morse Rd', 'Columbus, OH 43224']}","{'latitude': 40.0604909832513, 'longitude': -82.9673610784594}",No recorded price,40.06049098,-82.96736108
texas-roadhouse-columbus-6,3.5,65,"[{'alias': 'steak', 'title': 'Steakhouses'}, {'alias': 'bbq', 'title': 'Barbeque'}, {'alias': 'tradamerican', 'title': 'American (Traditional)'}]","{'address1': '1540 Bethel Rd', 'address2': '', 'address3': '', 'city': 'Columbus', 'zip_code': '43220', 'country': 'US', 'state': 'OH', 'display_address': ['1540 Bethel Rd', 'Columbus, OH 43220']}","{'latitude': 40.06414, 'longitude': -83.06011}",$$,40.06414,-83.06011
land-yacht-bbq-columbus,3.5,23,"[{'alias': 'foodtrucks', 'title': 'Food Trucks'}, {'alias': 'bbq', 'title': 'Barbeque'}]","{'address1': '3833 W Broad St', 'address2': '', 'address3': '', 'city': 'Columbus', 'zip_code': '43228', 'country': 'US', 'state': 'OH', 'display_address': ['3833 W Broad St', 'Columbus, OH 43228']}","{'latitude': 39.9523372234485, 'longitude': -83.1054530635071}",$,39.95233722,-83.10545306
station-house-81-commercial-point,4,17,"[{'alias': 'tradamerican', 'title': 'American (Traditional)'}, {'alias': 'bbq', 'title': 'Barbeque'}, {'alias': 'sandwiches', 'title': 'Sandwiches'}]","{'address1': '11 Front St', 'address2': None, 'address3': None, 'city': 'Commercial Point', 'zip_code': '43116', 'country': 'US', 'state': 'OH', 'display_address': ['11 Front St', 'Commercial Point, OH 43116']}","{'latitude': 39.76879, 'longitude': -83.05878}",$,39.76879,-83.05878
market-and-boar-columbus,3.5,68,"[{'alias': 'bbq', 'title': 'Barbeque'}, {'alias': 'tradamerican', 'title': 'American (Traditional)'}, {'alias': 'sandwiches', 'title': 'Sandwiches'}]","{'address1': '59 Spruce St', 'address2': '', 'address3': '', 'city': 'Columbus', 'zip_code': '43215', 'country': 'US', 'state': 'OH', 'display_address': ['59 Spruce St', 'Columbus, OH 43215']}","{'latitude': 39.97217, 'longitude': -83.00416}",$$,39.97217,-83.00416
oak-hill-barbeque-sunbury,4.5,63,"[{'alias': 'bbq', 'title': 'Barbeque'}]","{'address1': '60 N Columbus St', 'address2': '', 'address3': '', 'city': 'Sunbury', 'zip_code': '43074', 'country': 'US', 'state': 'OH', 'display_address': ['60 N Columbus St', 'Sunbury, OH 43074']}","{'latitude': 40.244251, 'longitude': -82.85923}",$$,40.244251,-82.85923
backcountry-barbecue-lancaster,3,3,"[{'alias': 'foodtrucks', 'title': 'Food Trucks'}, {'alias': 'bbq', 'title': 'Barbeque'}]","{'address1': '5705 Lithopolis Rd NW', 'address2': '', 'address3': '', 'city': 'Lancaster', 'zip_code': '43130', 'country': 'US', 'state': 'OH', 'display_address': ['5705 Lithopolis Rd NW', 'Lancaster, OH 43130']}","{'latitude': 39.748262, 'longitude': -82.7097866}",$$,39.748262,-82.7097866
city-barbeque-gahanna,4,96,"[{'alias': 'bbq', 'title': 'Barbeque'}, {'alias': 'catering', 'title': 'Caterers'}]","{'address1': '108 S. Stygler Road', 'address2': '', 'address3': '', 'city': 'Gahanna', 'zip_code': '43230', 'country': 'US', 'state': 'OH', 'display_address': ['108 S. Stygler Road', 'Gahanna, OH 43230']}","{'latitude': 40.017894744873, 'longitude': -82.8901672363281}",$$,40.01789474,-82.89016724
ray-rays-hog-pit-westerville-2,4,24,"[{'alias': 'bbq', 'title': 'Barbeque'}, {'alias': 'southern', 'title': 'Southern'}, {'alias': 'soulfood', 'title': 'Soul Food'}]","{'address1': '5755 Maxtown Rd', 'address2': '', 'address3': None, 'city': 'Westerville', 'zip_code': '43082', 'country': 'US', 'state': 'OH', 'display_address': ['5755 Maxtown Rd', 'Westerville, OH 43082']}","{'latitude': 40.1476125166414, 'longitude': -82.9211220145226}",$$,40.14761252,-82.92112201
smokey-bones-bar-and-fire-grill-columbus-3,2.5,59,"[{'alias': 'bbq', 'title': 'Barbeque'}]","{'address1': '3939 Morse Crossing', 'address2': '', 'address3': '', 'city': 'Columbus', 'zip_code': '43219', 'country': 'US', 'state': 'OH', 'display_address': ['3939 Morse Crossing', 'Columbus, OH 43219']}","{'latitude': 40.04963, 'longitude': -82.92084}",$$,40.04963,-82.92084
route-62-barbeque-johnstown,4.5,97,"[{'alias': 'bbq', 'title': 'Barbeque'}]","{'address1': '580 W Coshocton St', 'address2': '', 'address3': '', 'city': 'Johnstown', 'zip_code': '43031', 'country': 'US', 'state': 'OH', 'display_address': ['580 W Coshocton St', 'Johnstown, OH 43031']}","{'latitude': 40.14834, 'longitude': -82.69985}",$,40.14834,-82.69985
smokey-bones-bar-and-fire-grill-columbus,3,47,"[{'alias': 'bbq', 'title': 'Barbeque'}, {'alias': 'tradamerican', 'title': 'American (Traditional)'}]","{'address1': '1481 Polaris Pkwy', 'address2': None, 'address3': '', 'city': 'Columbus', 'zip_code': '43240', 'country': 'US', 'state': 'OH', 'display_address': ['1481 Polaris Pkwy', 'Columbus, OH 43240']}","{'latitude': 40.14061, 'longitude': -82.97972}",$$,40.14061,-82.97972
blues-columbus,5,1,"[{'alias': 'southern', 'title': 'Southern'}, {'alias': 'bbq', 'title': 'Barbeque'}]","{'address1': '400 N High St', 'address2': '', 'address3': '', 'city': 'Columbus', 'zip_code': '43215', 'country': 'US', 'state': 'OH', 'display_address': ['400 N High St', 'Columbus, OH 43215']}","{'latitude': 39.97016, 'longitude': -83.0004}",No recorded price,39.97016,-83.0004
dickeys-barbecue-pit-hilliard,3,37,"[{'alias': 'bbq', 'title': 'Barbeque'}]","{'address1': '3915 Britton Pkwy', 'address2': '', 'address3': None, 'city': 'Hilliard', 'zip_code': '43026', 'country': 'US', 'state': 'OH', 'display_address': ['3915 Britton Pkwy', 'Hilliard, OH 43026']}","{'latitude': 40.0328775077393, 'longitude': -83.1314561516047}",$$,40.03287751,-83.13145615
happys-pizza-columbus,3,7,"[{'alias': 'bbq', 'title': 'Barbeque'}, {'alias': 'pizza', 'title': 'Pizza'}]","{'address1': '3650 E Main St', 'address2': '', 'address3': '', 'city': 'Columbus', 'zip_code': '43213', 'country': 'US', 'state': 'OH', 'display_address': ['3650 E Main St', 'Columbus, OH 43213']}","{'latitude': 39.9566333171739, 'longitude': -82.9003599668915}",$$,39.95663332,-82.90035997
tennessee-pit-barbecue-columbus,3.5,6,"[{'alias': 'foodtrucks', 'title': 'Food Trucks'}, {'alias': 'bbq', 'title': 'Barbeque'}, {'alias': 'soulfood', 'title': 'Soul Food'}]","{'address1': '6091 Cleveland Ave', 'address2': '', 'address3': '', 'city': 'Columbus', 'zip_code': '43231', 'country': 'US', 'state': 'OH', 'display_address': ['6091 Cleveland Ave', 'Columbus, OH 43231']}","{'latitude': 40.0988328161969, 'longitude': -82.9509530138229}",$,40.09883282,-82.95095301
texas-roadhouse-grove-city-2,3,43,"[{'alias': 'steak', 'title': 'Steakhouses'}, {'alias': 'bbq', 'title': 'Barbeque'}, {'alias': 'tradamerican', 'title': 'American (Traditional)'}]","{'address1': '4155 Parkway Centre Dr', 'address2': '', 'address3': '', 'city': 'Grove City', 'zip_code': '43123', 'country': 'US', 'state': 'OH', 'display_address': ['4155 Parkway Centre Dr', 'Grove City, OH 43123']}","{'latitude': 39.8754332, 'longitude': -83.0466304}",$$,39.8754332,-83.0466304
bobs-backyard-barbecue-lancaster,4.5,11,"[{'alias': 'foodtrucks', 'title': 'Food Trucks'}, {'alias': 'bbq', 'title': 'Barbeque'}]","{'address1': '', 'address2': None, 'address3': '', 'city': 'Lancaster', 'zip_code': '43130', 'country': 'US', 'state': 'OH', 'display_address': ['Lancaster, OH 43130']}","{'latitude': 39.71598, 'longitude': -82.5993}",No recorded price,39.71598,-82.5993
city-barbeque-westerville-5,4,62,"[{'alias': 'bbq', 'title': 'Barbeque'}]","{'address1': '600 S State St', 'address2': '', 'address3': '', 'city': 'Westerville', 'zip_code': '43081', 'country': 'US', 'state': 'OH', 'display_address': ['600 S State St', 'Westerville, OH 43081']}","{'latitude': 40.10999, 'longitude': -82.92532}",$$,40.10999,-82.92532
mosleys-eats-and-treats-hilliard,3.5,3,"[{'alias': 'foodtrucks', 'title': 'Food Trucks'}, {'alias': 'bbq', 'title': 'Barbeque'}]","{'address1': '2410 Hilliard Rome Rd', 'address2': '', 'address3': None, 'city': 'Hilliard', 'zip_code': '43026', 'country': 'US', 'state': 'OH', 'display_address': ['2410 Hilliard Rome Rd', 'Hilliard, OH 43026']}","{'latitude': 40.0005, 'longitude': -83.15293}",No recorded price,40.0005,-83.15293
the-hansom-hog-groveport,3.5,7,"[{'alias': 'bbq', 'title': 'Barbeque'}, {'alias': 'steak', 'title': 'Steakhouses'}, {'alias': 'tradamerican', 'title': 'American (Traditional)'}]","{'address1': '549 Main St', 'address2': None, 'address3': '', 'city': 'Groveport', 'zip_code': '43125', 'country': 'US', 'state': 'OH', 'display_address': ['549 Main St', 'Groveport, OH 43125']}","{'latitude': 39.851444, 'longitude': -82.885246}",$$,39.851444,-82.885246
city-barbeque-powell,4,56,"[{'alias': 'bbq', 'title': 'Barbeque'}, {'alias': 'catering', 'title': 'Caterers'}]","{'address1': '3758 West Powell Road', 'address2': '', 'address3': '', 'city': 'Powell', 'zip_code': '43065', 'country': 'US', 'state': 'OH', 'display_address': ['3758 West Powell Road', 'Powell, OH 43065']}","{'latitude': 40.158958613153, 'longitude': -83.090005049856}",$$,40.15895861,-83.09000505
dickeys-barbecue-pit-lewis-center,3.5,48,"[{'alias': 'bbq', 'title': 'Barbeque'}]","{'address1': '8641 Columbus Pike', 'address2': 'Ste 1240', 'address3': '', 'city': 'Lewis Center', 'zip_code': '43035', 'country': 'US', 'state': 'OH', 'display_address': ['8641 Columbus Pike', 'Ste 1240', 'Lewis Center, OH 43035']}","{'latitude': 40.1646114885807, 'longitude': -83.0197454988956}",$$,40.16461149,-83.0197455
blue-pit-bbq-columbus,5,1,"[{'alias': 'streetvendors', 'title': 'Street Vendors'}, {'alias': 'bbq', 'title': 'Barbeque'}]","{'address1': ""Parson's And Stanley"", 'address2': '', 'address3': '', 'city': 'Columbus', 'zip_code': '43206', 'country': 'US', 'state': 'OH', 'display_address': [""Parson's And Stanley"", 'Columbus, OH 43206']}","{'latitude': 39.9449621, 'longitude': -82.9828983}",No recorded price,39.9449621,-82.9828983
longhorn-steakhouse-grove-city,3.5,35,"[{'alias': 'steak', 'title': 'Steakhouses'}, {'alias': 'tradamerican', 'title': 'American (Traditional)'}, {'alias': 'bbq', 'title': 'Barbeque'}]","{'address1': '1742 Stringtown Rd', 'address2': '', 'address3': '', 'city': 'Grove City', 'zip_code': '43123', 'country': 'US', 'state': 'OH', 'display_address': ['1742 Stringtown Rd', 'Grove City, OH 43123']}","{'latitude': 39.87921, 'longitude': -83.04196}",$$,39.87921,-83.04196
smokey-bones-bar-and-fire-grill-grove-city,3,51,"[{'alias': 'bbq', 'title': 'Barbeque'}]","{'address1': '1615 Stringtown Rd', 'address2': '', 'address3': '', 'city': 'Grove City', 'zip_code': '43123', 'country': 'US', 'state': 'OH', 'display_address': ['1615 Stringtown Rd', 'Grove City, OH 43123']}","{'latitude': 39.87787, 'longitude': -83.04019}",$$,39.87787,-83.04019
ribman-catering-columbus,4,6,"[{'alias': 'foodtrucks', 'title': 'Food Trucks'}, {'alias': 'bbq', 'title': 'Barbeque'}]","{'address1': '1030 Alum Creek Dr', 'address2': '', 'address3': '', 'city': 'Columbus', 'zip_code': '43209', 'country': 'US', 'state': 'OH', 'display_address': ['1030 Alum Creek Dr', 'Columbus, OH 43209']}","{'latitude': 39.9467791, 'longitude': -82.944824}",$$$,39.9467791,-82.944824
big-walnut-grill-sunbury-2,2.5,38,"[{'alias': 'tradamerican', 'title': 'American (Traditional)'}, {'alias': 'bbq', 'title': 'Barbeque'}, {'alias': 'burgers', 'title': 'Burgers'}]","{'address1': '175 State Rt 3', 'address2': '', 'address3': '', 'city': 'Sunbury', 'zip_code': '43074', 'country': 'US', 'state': 'OH', 'display_address': ['175 State Rt 3', 'Sunbury, OH 43074']}","{'latitude': 40.2446916349606, 'longitude': -82.8695692643342}",$$,40.24469163,-82.86956926
longhorn-steakhouse-dublin-2,3,57,"[{'alias': 'steak', 'title': 'Steakhouses'}, {'alias': 'tradamerican', 'title': 'American (Traditional)'}, {'alias': 'bbq', 'title': 'Barbeque'}]","{'address1': '6035 Blazer Memorial Pkwy', 'address2': '', 'address3': '', 'city': 'Dublin', 'zip_code': '43017', 'country': 'US', 'state': 'OH', 'display_address': ['6035 Blazer Memorial Pkwy', 'Dublin, OH 43017']}","{'latitude': 40.0791743543138, 'longitude': -83.131625113337}",$$,40.07917435,-83.13162511
barrel-and-boar-gahanna-3,3.5,11,"[{'alias': 'foodtrucks', 'title': 'Food Trucks'}, {'alias': 'bbq', 'title': 'Barbeque'}]","{'address1': '121 Mill St', 'address2': '', 'address3': '', 'city': 'Gahanna', 'zip_code': '43230', 'country': 'US', 'state': 'OH', 'display_address': ['121 Mill St', 'Gahanna, OH 43230']}","{'latitude': 40.0207824707031, 'longitude': -82.8803863525391}",$$,40.02078247,-82.88038635
zachariahs-redeye-barbeque-canal-winchester,5,1,"[{'alias': 'catering', 'title': 'Caterers'}, {'alias': 'foodtrucks', 'title': 'Food Trucks'}, {'alias': 'bbq', 'title': 'Barbeque'}]","{'address1': '', 'address2': None, 'address3': None, 'city': 'Canal Winchester', 'zip_code': '43110', 'country': 'US', 'state': 'OH', 'display_address': ['Canal Winchester, OH 43110']}","{'latitude': 39.8251609802246, 'longitude': -82.8024444580078}",No recorded price,39.82516098,-82.80244446
whole-hog-bbq-galena,5,1,"[{'alias': 'bbq', 'title': 'Barbeque'}]","{'address1': '591 S 3 Bs And K Rd', 'address2': None, 'address3': None, 'city': 'Galena', 'zip_code': '43021', 'country': 'US', 'state': 'OH', 'display_address': ['591 S 3 Bs And K Rd', 'Galena, OH 43021']}","{'latitude': 40.2600399, 'longitude': -82.93707}",No recorded price,40.2600399,-82.93707
buckeye-bbq-express-west-jefferson,5,4,"[{'alias': 'foodtrucks', 'title': 'Food Trucks'}, {'alias': 'bbq', 'title': 'Barbeque'}, {'alias': 'desserts', 'title': 'Desserts'}]","{'address1': '9640 W Broad St', 'address2': '', 'address3': None, 'city': 'West Jefferson', 'zip_code': '43162', 'country': 'US', 'state': 'OH', 'display_address': ['9640 W Broad St', 'West Jefferson, OH 43162']}","{'latitude': 39.9462136610193, 'longitude': -83.2553985082934}",$,39.94621366,-83.25539851
longhorn-steakhouse-pickerington,3.5,35,"[{'alias': 'steak', 'title': 'Steakhouses'}, {'alias': 'tradamerican', 'title': 'American (Traditional)'}, {'alias': 'bbq', 'title': 'Barbeque'}]","{'address1': '1740 Hill Rd N', 'address2': '', 'address3': '', 'city': 'Pickerington', 'zip_code': '43147', 'country': 'US', 'state': 'OH', 'display_address': ['1740 Hill Rd N', 'Pickerington, OH 43147']}","{'latitude': 39.9257599, 'longitude': -82.78544}",$$,39.9257599,-82.78544
longhorn-steakhouse-gahanna,3.5,51,"[{'alias': 'steak', 'title': 'Steakhouses'}, {'alias': 'tradamerican', 'title': 'American (Traditional)'}, {'alias': 'bbq', 'title': 'Barbeque'}]","{'address1': '4950 N Hamilton Rd', 'address2': '', 'address3': '', 'city': 'Gahanna', 'zip_code': '43230', 'country': 'US', 'state': 'OH', 'display_address': ['4950 N Hamilton Rd', 'Gahanna, OH 43230']}","{'latitude': 40.05779, 'longitude': -82.86254}",$$,40.05779,-82.86254
logans-roadhouse-reynoldsburg,2.5,20,"[{'alias': 'steak', 'title': 'Steakhouses'}, {'alias': 'bbq', 'title': 'Barbeque'}, {'alias': 'tradamerican', 'title': 'American (Traditional)'}]","{'address1': '2364 Taylor Park Dr', 'address2': '', 'address3': '', 'city': 'Reynoldsburg', 'zip_code': '43068', 'country': 'US', 'state': 'OH', 'display_address': ['2364 Taylor Park Dr', 'Reynoldsburg, OH 43068']}","{'latitude': 39.9406196239577, 'longitude': -82.7911868900821}",$$,39.94061962,-82.79118689
smokey-bones-bar-and-fire-grill-reynoldsburg-2,3,14,"[{'alias': 'bbq', 'title': 'Barbeque'}]","{'address1': '2200 Baltimore Reynoldsburg Rd', 'address2': '', 'address3': '', 'city': 'Reynoldsburg', 'zip_code': '43068', 'country': 'US', 'state': 'OH', 'display_address': ['2200 Baltimore Reynoldsburg Rd', 'Reynoldsburg, OH 43068']}","{'latitude': 39.9401556, 'longitude': -82.7915732}",$$,39.9401556,-82.7915732
smokey-bones-barbeque-and-grill-reynoldsburg,5,4,"[{'alias': 'bbq', 'title': 'Barbeque'}]","{'address1': '2200 Baltimore Reynoldsburg Rd', 'address2': '', 'address3': '', 'city': 'Reynoldsburg', 'zip_code': '43068', 'country': 'US', 'state': 'OH', 'display_address': ['2200 Baltimore Reynoldsburg Rd', 'Reynoldsburg, OH 43068']}","{'latitude': 39.939739, 'longitude': -82.790588}",$$,39.939739,-82.790588
tian-fu-buffet-delaware-2,3.5,34,"[{'alias': 'chinese', 'title': 'Chinese'}, {'alias': 'bbq', 'title': 'Barbeque'}, {'alias': 'buffets', 'title': 'Buffets'}]","{'address1': '850 Sunbury Rd', 'address2': '', 'address3': '', 'city': 'Delaware', 'zip_code': '43015', 'country': 'US', 'state': 'OH', 'display_address': ['850 Sunbury Rd', 'Delaware, OH 43015']}","{'latitude': 40.293166740378, 'longitude': -83.0373334549962}",$,40.29316674,-83.03733345
dickeys-barbecue-pit-delaware,3,34,"[{'alias': 'bbq', 'title': 'Barbeque'}]","{'address1': '820 Sunbury Rd', 'address2': None, 'address3': None, 'city': 'Delaware', 'zip_code': '43015', 'country': 'US', 'state': 'OH', 'display_address': ['820 Sunbury Rd', 'Delaware, OH 43015']}","{'latitude': 40.2941780090332, 'longitude': -83.0382461547852}",$$,40.29417801,-83.03824615
texas-roadhouse-lancaster-2,4,35,"[{'alias': 'steak', 'title': 'Steakhouses'}, {'alias': 'bbq', 'title': 'Barbeque'}, {'alias': 'tradamerican', 'title': 'American (Traditional)'}]","{'address1': '2890 Columbus-Lancaster Rd Nw', 'address2': None, 'address3': None, 'city': 'Lancaster', 'zip_code': '43130', 'country': 'US', 'state': 'OH', 'display_address': ['2890 Columbus-Lancaster Rd Nw', 'Lancaster, OH 43130']}","{'latitude': 39.7479476928711, 'longitude': -82.6553268432617}",$$,39.74794769,-82.65532684
bobs-backyard-bbq-and-cafe-lancaster,3.5,7,"[{'alias': 'bbq', 'title': 'Barbeque'}, {'alias': 'cafes', 'title': 'Cafes'}]","{'address1': '157 W Main St', 'address2': '', 'address3': None, 'city': 'Lancaster', 'zip_code': '43130', 'country': 'US', 'state': 'OH', 'display_address': ['157 W Main St', 'Lancaster, OH 43130']}","{'latitude': 39.7140592355387, 'longitude': -82.6040835678577}",$$,39.71405924,-82.60408357
hadleys-bar-and-kitchen-columbus,4,100,"[{'alias': 'bars', 'title': 'Bars'}, {'alias': 'burgers', 'title': 'Burgers'}, {'alias': 'sandwiches', 'title': 'Sandwiches'}]","{'address1': '260 S 4th St', 'address2': '', 'address3': None, 'city': 'Columbus', 'zip_code': '43215', 'country': 'US', 'state': 'OH', 'display_address': ['260 S 4th St', 'Columbus, OH 43215']}","{'latitude': 39.95723121299, 'longitude': -82.9949787531648}",$$,39.95723121,-82.99497875
flip-side-columbus-2,4,355,"[{'alias': 'burgers', 'title': 'Burgers'}]","{'address1': '3945 Easton Station', 'address2': '', 'address3': '', 'city': 'Columbus', 'zip_code': '43219', 'country': 'US', 'state': 'OH', 'display_address': ['3945 Easton Station', 'Columbus, OH 43219']}","{'latitude': 40.0496929364113, 'longitude': -82.9164077302245}",$$,40.04969294,-82.91640773
the-old-mohawk-columbus,4,230,"[{'alias': 'tradamerican', 'title': 'American (Traditional)'}, {'alias': 'soup', 'title': 'Soup'}, {'alias': 'burgers', 'title': 'Burgers'}]","{'address1': '821 Mohawk St', 'address2': '', 'address3': '', 'city': 'Columbus', 'zip_code': '43206', 'country': 'US', 'state': 'OH', 'display_address': ['821 Mohawk St', 'Columbus, OH 43206']}","{'latitude': 39.9457809, 'longitude': -82.993213}",$$,39.9457809,-82.993213
teds-montana-grill-columbus-3,4,60,"[{'alias': 'tradamerican', 'title': 'American (Traditional)'}, {'alias': 'burgers', 'title': 'Burgers'}, {'alias': 'seafood', 'title': 'Seafood'}]","{'address1': '4169 Worth Ave', 'address2': '', 'address3': '', 'city': 'Columbus', 'zip_code': '43219', 'country': 'US', 'state': 'OH', 'display_address': ['4169 Worth Ave', 'Columbus, OH 43219']}","{'latitude': 40.0549981, 'longitude': -82.9078799}",$$,40.0549981,-82.9078799
the-thurman-cafe-columbus-4,4,715,"[{'alias': 'bars', 'title': 'Bars'}, {'alias': 'burgers', 'title': 'Burgers'}]","{'address1': '183 Thurman Ave', 'address2': '', 'address3': '', 'city': 'Columbus', 'zip_code': '43206', 'country': 'US', 'state': 'OH', 'display_address': ['183 Thurman Ave', 'Columbus, OH 43206']}","{'latitude': 39.9394073486328, 'longitude': -82.9911193847656}",$$,39.93940735,-82.99111938
eden-burger-columbus,5,33,"[{'alias': 'vegan', 'title': 'Vegan'}, {'alias': 'burgers', 'title': 'Burgers'}, {'alias': 'vegetarian', 'title': 'Vegetarian'}]","{'address1': '1437 N High St', 'address2': '', 'address3': None, 'city': 'Columbus', 'zip_code': '43201', 'country': 'US', 'state': 'OH', 'display_address': ['1437 N High St', 'Columbus, OH 43201']}","{'latitude': 39.991732212637, 'longitude': -83.0065794597006}",$,39.99173221,-83.00657946
three-sheets-columbus,4,31,"[{'alias': 'bars', 'title': 'Bars'}, {'alias': 'burgers', 'title': 'Burgers'}, {'alias': 'chicken_wings', 'title': 'Chicken Wings'}]","{'address1': '560 S High St', 'address2': '', 'address3': '', 'city': 'Columbus', 'zip_code': '43215', 'country': 'US', 'state': 'OH', 'display_address': ['560 S High St', 'Columbus, OH 43215']}","{'latitude': 39.95066, 'longitude': -82.9981899}",$,39.95066,-82.9981899
bareburger-columbus-2,3,85,"[{'alias': 'burgers', 'title': 'Burgers'}]","{'address1': '4560 N High St', 'address2': None, 'address3': '', 'city': 'Columbus', 'zip_code': '43214', 'country': 'US', 'state': 'OH', 'display_address': ['4560 N High St', 'Columbus, OH 43214']}","{'latitude': 40.05513, 'longitude': -83.01943}",$$,40.05513,-83.01943
the-chop-shop-columbus-2,4,40,"[{'alias': 'burgers', 'title': 'Burgers'}, {'alias': 'sportsbars', 'title': 'Sports Bars'}, {'alias': 'tradamerican', 'title': 'American (Traditional)'}]","{'address1': '2159 N High St', 'address2': '', 'address3': '', 'city': 'Columbus', 'zip_code': '43201', 'country': 'US', 'state': 'OH', 'display_address': ['2159 N High St', 'Columbus, OH 43201']}","{'latitude': 40.0063781738281, 'longitude': -83.0096893310547}",$,40.00637817,-83.00968933
olivers-burgers-steaks-and-bourbon-columbus,3,157,"[{'alias': 'sportsbars', 'title': 'Sports Bars'}, {'alias': 'steak', 'title': 'Steakhouses'}, {'alias': 'burgers', 'title': 'Burgers'}]","{'address1': '26 N High St', 'address2': '', 'address3': '', 'city': 'Columbus', 'zip_code': '43215', 'country': 'US', 'state': 'OH', 'display_address': ['26 N High St', 'Columbus, OH 43215']}","{'latitude': 39.9629287981735, 'longitude': -83.0002907663584}",$$,39.9629288,-83.00029077
bareburger-columbus,3.5,310,"[{'alias': 'burgers', 'title': 'Burgers'}, {'alias': 'salad', 'title': 'Salad'}, {'alias': 'tradamerican', 'title': 'American (Traditional)'}]","{'address1': '463 N High St', 'address2': None, 'address3': '', 'city': 'Columbus', 'zip_code': '43215', 'country': 'US', 'state': 'OH', 'display_address': ['463 N High St', 'Columbus, OH 43215']}","{'latitude': 39.9718867242336, 'longitude': -83.0025786906481}",$$,39.97188672,-83.00257869
burger-theory-columbus-columbus,4,8,"[{'alias': 'burgers', 'title': 'Burgers'}]","{'address1': '175 E Town St', 'address2': '', 'address3': '', 'city': 'Columbus', 'zip_code': '43215', 'country': 'US', 'state': 'OH', 'display_address': ['175 E Town St', 'Columbus, OH 43215']}","{'latitude': 39.9587249755859, 'longitude': -82.9947814941406}",$$,39.95872498,-82.99478149
ringside-cafe-columbus,4,106,"[{'alias': 'bars', 'title': 'Bars'}, {'alias': 'burgers', 'title': 'Burgers'}, {'alias': 'tradamerican', 'title': 'American (Traditional)'}]","{'address1': '19 N Pearl St', 'address2': '', 'address3': '', 'city': 'Columbus', 'zip_code': '43215', 'country': 'US', 'state': 'OH', 'display_address': ['19 N Pearl St', 'Columbus, OH 43215']}","{'latitude': 39.96288, 'longitude': -82.99994}",$$,39.96288,-82.99994
teds-montana-grill-columbus,4,144,"[{'alias': 'tradamerican', 'title': 'American (Traditional)'}, {'alias': 'steak', 'title': 'Steakhouses'}, {'alias': 'burgers', 'title': 'Burgers'}]","{'address1': '191 W Nationwide Blvd', 'address2': '', 'address3': '', 'city': 'Columbus', 'zip_code': '43215', 'country': 'US', 'state': 'OH', 'display_address': ['191 W Nationwide Blvd', 'Columbus, OH 43215']}","{'latitude': 39.9679412841797, 'longitude': -83.0068511962891}",$$,39.96794128,-83.0068512
hang-over-easy-columbus,4,202,"[{'alias': 'breakfast_brunch', 'title': 'Breakfast & Brunch'}, {'alias': 'burgers', 'title': 'Burgers'}, {'alias': 'newamerican', 'title': 'American (New)'}]","{'address1': '1646 Neil Ave', 'address2': '', 'address3': '', 'city': 'Columbus', 'zip_code': '43201', 'country': 'US', 'state': 'OH', 'display_address': ['1646 Neil Ave', 'Columbus, OH 43201']}","{'latitude': 39.99512, 'longitude': -83.01418}",$,39.99512,-83.01418
johnnies-tavern-columbus,4,69,"[{'alias': 'diners', 'title': 'Diners'}, {'alias': 'burgers', 'title': 'Burgers'}]","{'address1': '3503 Trabue Rd', 'address2': '', 'address3': '', 'city': 'Columbus', 'zip_code': '43204', 'country': 'US', 'state': 'OH', 'display_address': ['3503 Trabue Rd', 'Columbus, OH 43204']}","{'latitude': 39.992847442627, 'longitude': -83.0898513793945}",$,39.99284744,-83.08985138
the-warehouse-cafe-columbus-3,4,78,"[{'alias': 'breakfast_brunch', 'title': 'Breakfast & Brunch'}, {'alias': 'burgers', 'title': 'Burgers'}, {'alias': 'sandwiches', 'title': 'Sandwiches'}]","{'address1': '243 N 5th St', 'address2': '', 'address3': '', 'city': 'Columbus', 'zip_code': '43215', 'country': 'US', 'state': 'OH', 'display_address': ['243 N 5th St', 'Columbus, OH 43215']}","{'latitude': 39.96794, 'longitude': -82.99619}",$,39.96794,-82.99619
o-reillys-pub-columbus-2,4,112,"[{'alias': 'pubs', 'title': 'Pubs'}, {'alias': 'burgers', 'title': 'Burgers'}]","{'address1': '2822 N High St', 'address2': '', 'address3': '', 'city': 'Columbus', 'zip_code': '43202', 'country': 'US', 'state': 'OH', 'display_address': ['2822 N High St', 'Columbus, OH 43202']}","{'latitude': 40.0198916288865, 'longitude': -83.012430024165}",$,40.01989163,-83.01243002
b-spot-columbus-2,3.5,239,"[{'alias': 'burgers', 'title': 'Burgers'}, {'alias': 'bars', 'title': 'Bars'}, {'alias': 'tradamerican', 'title': 'American (Traditional)'}]","{'address1': '5091 N Hamilton Rd', 'address2': '', 'address3': '', 'city': 'Columbus', 'zip_code': '43230', 'country': 'US', 'state': 'OH', 'display_address': ['5091 N Hamilton Rd', 'Columbus, OH 43230']}","{'latitude': 40.059812, 'longitude': -82.8640056}",$$,40.059812,-82.8640056
stack-city-burger-bar-columbus-2,3.5,143,"[{'alias': 'burgers', 'title': 'Burgers'}, {'alias': 'tradamerican', 'title': 'American (Traditional)'}, {'alias': 'bars', 'title': 'Bars'}]","{'address1': '600 N High St', 'address2': '', 'address3': '', 'city': 'Columbus', 'zip_code': '43215', 'country': 'US', 'state': 'OH', 'display_address': ['600 N High St', 'Columbus, OH 43215']}","{'latitude': 39.97466, 'longitude': -83.00281}",$$,39.97466,-83.00281
bar-145-columbus-3,3,165,"[{'alias': 'bars', 'title': 'Bars'}, {'alias': 'burgers', 'title': 'Burgers'}, {'alias': 'sandwiches', 'title': 'Sandwiches'}]","{'address1': '955 W 5th Ave', 'address2': '', 'address3': None, 'city': 'Columbus', 'zip_code': '43212', 'country': 'US', 'state': 'OH', 'display_address': ['955 W 5th Ave', 'Columbus, OH 43212']}","{'latitude': 39.98795, 'longitude': -83.03151}",$$,39.98795,-83.03151
tonys-coneys-columbus,4,47,"[{'alias': 'icecream', 'title': 'Ice Cream & Frozen Yogurt'}, {'alias': 'burgers', 'title': 'Burgers'}]","{'address1': '5266 W Broad St', 'address2': '', 'address3': '', 'city': 'Columbus', 'zip_code': '43228', 'country': 'US', 'state': 'OH', 'display_address': ['5266 W Broad St', 'Columbus, OH 43228']}","{'latitude': 39.952003, 'longitude': -83.140953}",$,39.952003,-83.140953
wings-and-more-columbus,3.5,13,"[{'alias': 'newamerican', 'title': 'American (New)'}, {'alias': 'chicken_wings', 'title': 'Chicken Wings'}, {'alias': 'burgers', 'title': 'Burgers'}]","{'address1': '2513 Summit St', 'address2': '', 'address3': '', 'city': 'Columbus', 'zip_code': '43202', 'country': 'US', 'state': 'OH', 'display_address': ['2513 Summit St', 'Columbus, OH 43202']}","{'latitude': 40.0148631, 'longitude': -83.0000952}",$,40.0148631,-83.0000952
oh-burgers-columbus,4,26,"[{'alias': 'burgers', 'title': 'Burgers'}, {'alias': 'foodtrucks', 'title': 'Food Trucks'}]","{'address1': '', 'address2': None, 'address3': '', 'city': 'Columbus', 'zip_code': '43222', 'country': 'US', 'state': 'OH', 'display_address': ['Columbus, OH 43222']}","{'latitude': 39.9591613, 'longitude': -83.0334524}",$,39.9591613,-83.0334524
grandview-cafe-columbus-4,4,11,"[{'alias': 'tradamerican', 'title': 'American (Traditional)'}, {'alias': 'burgers', 'title': 'Burgers'}]","{'address1': '1455 W 3rd Ave', 'address2': '', 'address3': None, 'city': 'Columbus', 'zip_code': '43212', 'country': 'US', 'state': 'OH', 'display_address': ['1455 W 3rd Ave', 'Columbus, OH 43212']}","{'latitude': 39.984856, 'longitude': -83.044612}",$$,39.984856,-83.044612
the-pub-polaris-columbus-4,3.5,132,"[{'alias': 'pubs', 'title': 'Pubs'}, {'alias': 'british', 'title': 'British'}, {'alias': 'burgers', 'title': 'Burgers'}]","{'address1': '1554 Polaris Pkwy', 'address2': '', 'address3': '', 'city': 'Columbus', 'zip_code': '43240', 'country': 'US', 'state': 'OH', 'display_address': ['1554 Polaris Pkwy', 'Columbus, OH 43240']}","{'latitude': 40.1458438887943, 'longitude': -82.9779564826645}",$$,40.14584389,-82.97795648
the-pint-room-dublin,4,271,"[{'alias': 'pubs', 'title': 'Pubs'}, {'alias': 'burgers', 'title': 'Burgers'}]","{'address1': '4415 West Dublin Granville Rd', 'address2': None, 'address3': '', 'city': 'Dublin', 'zip_code': '43017', 'country': 'US', 'state': 'OH', 'display_address': ['4415 West Dublin Granville Rd', 'Dublin, OH 43017']}","{'latitude': 40.0988864963231, 'longitude': -83.106081764892}",$$,40.0988865,-83.10608176
max-and-ermas-columbus-5,3,28,"[{'alias': 'burgers', 'title': 'Burgers'}, {'alias': 'tradamerican', 'title': 'American (Traditional)'}]","{'address1': 'Cmh Columbus Airport', 'address2': '', 'address3': '4600 International Gateway', 'city': 'Columbus', 'zip_code': '43219', 'country': 'US', 'state': 'OH', 'display_address': ['Cmh Columbus Airport', '4600 International Gateway', 'Columbus, OH 43219']}","{'latitude': 39.9980747241634, 'longitude': -82.883743978438}",$$,39.99807472,-82.88374398
average-joes-pub-and-grill-columbus-2,3,52,"[{'alias': 'bars', 'title': 'Bars'}, {'alias': 'burgers', 'title': 'Burgers'}, {'alias': 'sandwiches', 'title': 'Sandwiches'}]","{'address1': '1515 Rome Hilliard Rd', 'address2': '', 'address3': '', 'city': 'Columbus', 'zip_code': '43228', 'country': 'US', 'state': 'OH', 'display_address': ['1515 Rome Hilliard Rd', 'Columbus, OH 43228']}","{'latitude': 39.979977, 'longitude': -83.150825}",$$,39.979977,-83.150825
macs-cafe-columbus-3,3.5,147,"[{'alias': 'burgers', 'title': 'Burgers'}, {'alias': 'irish', 'title': 'Irish'}, {'alias': 'pubs', 'title': 'Pubs'}]","{'address1': '693 N High St', 'address2': '', 'address3': '', 'city': 'Columbus', 'zip_code': '43215', 'country': 'US', 'state': 'OH', 'display_address': ['693 N High St', 'Columbus, OH 43215']}","{'latitude': 39.9765457212925, 'longitude': -83.0034772306681}",$,39.97654572,-83.00347723
flip-spot-columbus,3.5,36,"[{'alias': 'burgers', 'title': 'Burgers'}, {'alias': 'tradamerican', 'title': 'American (Traditional)'}]","{'address1': '1500 Polaris Pkwy', 'address2': '', 'address3': '', 'city': 'Columbus', 'zip_code': '43240', 'country': 'US', 'state': 'OH', 'display_address': ['1500 Polaris Pkwy', 'Columbus, OH 43240']}","{'latitude': 40.14575, 'longitude': -82.98036}",$,40.14575,-82.98036
o-charleys-restaurant-and-bar-columbus-5,3,28,"[{'alias': 'tradamerican', 'title': 'American (Traditional)'}, {'alias': 'burgers', 'title': 'Burgers'}]","{'address1': '6285 Cleveland Ave', 'address2': '', 'address3': '', 'city': 'Columbus', 'zip_code': '43231', 'country': 'US', 'state': 'OH', 'display_address': ['6285 Cleveland Ave', 'Columbus, OH 43231']}","{'latitude': 40.1010704040527, 'longitude': -82.9506072998047}",$$,40.1010704,-82.9506073
buckeye-cheddar-and-chili-reynoldsburg,4.5,59,"[{'alias': 'hotdog', 'title': 'Hot Dogs'}, {'alias': 'newamerican', 'title': 'American (New)'}, {'alias': 'burgers', 'title': 'Burgers'}]","{'address1': '7619 E Main St', 'address2': '', 'address3': None, 'city': 'Reynoldsburg', 'zip_code': '43068', 'country': 'US', 'state': 'OH', 'display_address': ['7619 E Main St', 'Reynoldsburg, OH 43068']}","{'latitude': 39.9552580897397, 'longitude': -82.7944783625993}",$,39.95525809,-82.79447836
harvest-pizzeria-dublin-dublin-2,4,28,"[{'alias': 'pizza', 'title': 'Pizza'}, {'alias': 'burgers', 'title': 'Burgers'}, {'alias': 'salad', 'title': 'Salad'}]","{'address1': '45 N High St', 'address2': None, 'address3': '', 'city': 'Dublin', 'zip_code': '43017', 'country': 'US', 'state': 'OH', 'display_address': ['45 N High St', 'Dublin, OH 43017']}","{'latitude': 40.1004371643066, 'longitude': -83.114387512207}",$$,40.10043716,-83.11438751
hungry-monkey-food-truck-columbus,4,17,"[{'alias': 'foodtrucks', 'title': 'Food Trucks'}, {'alias': 'burgers', 'title': 'Burgers'}]","{'address1': '', 'address2': '', 'address3': '', 'city': 'Columbus', 'zip_code': '43201', 'country': 'US', 'state': 'OH', 'display_address': ['Columbus, OH 43201']}","{'latitude': 39.9912643432617, 'longitude': -83.0008850097656}",$,39.99126434,-83.00088501
sweet-raines-columbus,2.5,2,"[{'alias': 'burgers', 'title': 'Burgers'}, {'alias': 'newamerican', 'title': 'American (New)'}]","{'address1': '1053 E Main St', 'address2': '', 'address3': '', 'city': 'Columbus', 'zip_code': '43205', 'country': 'US', 'state': 'OH', 'display_address': ['1053 E Main St', 'Columbus, OH 43205']}","{'latitude': 39.9578504, 'longitude': -82.9711245}",$,39.9578504,-82.9711245
harolds-american-grille-worthington-3,3.5,70,"[{'alias': 'breakfast_brunch', 'title': 'Breakfast & Brunch'}, {'alias': 'burgers', 'title': 'Burgers'}, {'alias': 'sandwiches', 'title': 'Sandwiches'}]","{'address1': '671 High St', 'address2': None, 'address3': '', 'city': 'Worthington', 'zip_code': '43085', 'country': 'US', 'state': 'OH', 'display_address': ['671 High St', 'Worthington, OH 43085']}","{'latitude': 40.0875975, 'longitude': -83.0181824}",$$,40.0875975,-83.0181824
winking-lizard-tavern-columbus,3.5,121,"[{'alias': 'tradamerican', 'title': 'American (Traditional)'}, {'alias': 'bars', 'title': 'Bars'}, {'alias': 'burgers', 'title': 'Burgers'}]","{'address1': '1380 Bethel Rd', 'address2': '', 'address3': '', 'city': 'Columbus', 'zip_code': '43220', 'country': 'US', 'state': 'OH', 'display_address': ['1380 Bethel Rd', 'Columbus, OH 43220']}","{'latitude': 40.0642929077148, 'longitude': -83.0559387207031}",$$,40.06429291,-83.05593872
chubbys-columbus,3,35,"[{'alias': 'burgers', 'title': 'Burgers'}, {'alias': 'chicken_wings', 'title': 'Chicken Wings'}, {'alias': 'sportsbars', 'title': 'Sports Bars'}]","{'address1': '1846 Hard Rd', 'address2': None, 'address3': None, 'city': 'Columbus', 'zip_code': '43235', 'country': 'US', 'state': 'OH', 'display_address': ['1846 Hard Rd', 'Columbus, OH 43235']}","{'latitude': 40.1173773, 'longitude': -83.065542}",$$,40.1173773,-83.065542
lillys-grove-city,4,50,"[{'alias': 'breakfast_brunch', 'title': 'Breakfast & Brunch'}, {'alias': 'tradamerican', 'title': 'American (Traditional)'}, {'alias': 'burgers', 'title': 'Burgers'}]","{'address1': '4008 Broadway', 'address2': '', 'address3': '', 'city': 'Grove City', 'zip_code': '43123', 'country': 'US', 'state': 'OH', 'display_address': ['4008 Broadway', 'Grove City, OH 43123']}","{'latitude': 39.882377, 'longitude': -83.093025}",$,39.882377,-83.093025
roosters-columbus-2,3,30,"[{'alias': 'burgers', 'title': 'Burgers'}, {'alias': 'chicken_wings', 'title': 'Chicken Wings'}, {'alias': 'sandwiches', 'title': 'Sandwiches'}]","{'address1': '4650 W Broad St', 'address2': None, 'address3': None, 'city': 'Columbus', 'zip_code': '43228', 'country': 'US', 'state': 'OH', 'display_address': ['4650 W Broad St', 'Columbus, OH 43228']}","{'latitude': 39.9524875, 'longitude': -83.1267694}",$$,39.9524875,-83.1267694
rippers-roadstand-columbus,3.5,10,"[{'alias': 'hotdog', 'title': 'Hot Dogs'}, {'alias': 'burgers', 'title': 'Burgers'}, {'alias': 'beerbar', 'title': 'Beer Bar'}]","{'address1': '2036 N High St', 'address2': '', 'address3': '', 'city': 'Columbus', 'zip_code': '43201', 'country': 'US', 'state': 'OH', 'display_address': ['2036 N High St', 'Columbus, OH 43201']}","{'latitude': 40.0038219684979, 'longitude': -83.0086538940668}",No recorded price,40.00382197,-83.00865389
the-half-pint-columbus,5,2,"[{'alias': 'burgers', 'title': 'Burgers'}, {'alias': 'tradamerican', 'title': 'American (Traditional)'}, {'alias': 'beerbar', 'title': 'Beer Bar'}]","{'address1': '415 N Front St', 'address2': 'Ste 199', 'address3': None, 'city': 'Columbus', 'zip_code': '43215', 'country': 'US', 'state': 'OH', 'display_address': ['415 N Front St', 'Ste 199', 'Columbus, OH 43215']}","{'latitude': 39.97073, 'longitude': -83.00443}",No recorded price,39.97073,-83.00443
dairy-queen-brazier-east-columbus,3,3,"[{'alias': 'icecream', 'title': 'Ice Cream & Frozen Yogurt'}, {'alias': 'breakfast_brunch', 'title': 'Breakfast & Brunch'}, {'alias': 'burgers', 'title': 'Burgers'}]","{'address1': '3260 Noe Bixby Rd', 'address2': '', 'address3': '', 'city': 'Columbus', 'zip_code': '43232', 'country': 'US', 'state': 'OH', 'display_address': ['3260 Noe Bixby Rd', 'Columbus, OH 43232']}","{'latitude': 39.9086844, 'longitude': -82.8646287}",$,39.9086844,-82.8646287
applebees-columbus-14,2.5,37,"[{'alias': 'tradamerican', 'title': 'American (Traditional)'}, {'alias': 'sportsbars', 'title': 'Sports Bars'}, {'alias': 'burgers', 'title': 'Burgers'}]","{'address1': '480 Ackerman Rd', 'address2': '', 'address3': '', 'city': 'Columbus', 'zip_code': '43202', 'country': 'US', 'state': 'OH', 'display_address': ['480 Ackerman Rd', 'Columbus, OH 43202']}","{'latitude': 40.0185688844687, 'longitude': -83.0256428609697}",$$,40.01856888,-83.02564286
lovells-tavern-columbus,2.5,3,"[{'alias': 'pubs', 'title': 'Pubs'}, {'alias': 'burgers', 'title': 'Burgers'}, {'alias': 'poolhalls', 'title': 'Pool Halls'}]","{'address1': '4265 Alum Creek Dr', 'address2': '', 'address3': '', 'city': 'Columbus', 'zip_code': '43207', 'country': 'US', 'state': 'OH', 'display_address': ['4265 Alum Creek Dr', 'Columbus, OH 43207']}","{'latitude': 39.88125, 'longitude': -82.93273}",$,39.88125,-82.93273
flanagans-pub-blacklick,4,25,"[{'alias': 'pubs', 'title': 'Pubs'}, {'alias': 'burgers', 'title': 'Burgers'}, {'alias': 'sandwiches', 'title': 'Sandwiches'}]","{'address1': '3001 Reynoldsburg New Albany Rd', 'address2': None, 'address3': None, 'city': 'Blacklick', 'zip_code': '43004', 'country': 'US', 'state': 'OH', 'display_address': ['3001 Reynoldsburg New Albany Rd', 'Blacklick, OH 43004']}","{'latitude': 40.043999, 'longitude': -82.809639}",$,40.043999,-82.809639
bunny-and-michelles-brats-and-such-columbus,4.5,3,"[{'alias': 'foodtrucks', 'title': 'Food Trucks'}, {'alias': 'burgers', 'title': 'Burgers'}, {'alias': 'sandwiches', 'title': 'Sandwiches'}]","{'address1': '6333 Cleveland Ave', 'address2': None, 'address3': '', 'city': 'Columbus', 'zip_code': '43231', 'country': 'US', 'state': 'OH', 'display_address': ['6333 Cleveland Ave', 'Columbus, OH 43231']}","{'latitude': 40.1011666, 'longitude': -82.9499809}",$,40.1011666,-82.9499809
mcdonalds-columbus-89,4,4,"[{'alias': 'hotdogs', 'title': 'Fast Food'}, {'alias': 'burgers', 'title': 'Burgers'}]","{'address1': '901 N Wilson Rd', 'address2': '', 'address3': '', 'city': 'Columbus', 'zip_code': '43204', 'country': 'US', 'state': 'OH', 'display_address': ['901 N Wilson Rd', 'Columbus, OH 43204']}","{'latitude': 39.971489, 'longitude': -83.0985031}",$,39.971489,-83.0985031
white-castle-columbus-12,4,7,"[{'alias': 'burgers', 'title': 'Burgers'}, {'alias': 'hotdogs', 'title': 'Fast Food'}]","{'address1': '1080 S Hamilton Rd', 'address2': None, 'address3': None, 'city': 'Columbus', 'zip_code': '43227', 'country': 'US', 'state': 'OH', 'display_address': ['1080 S Hamilton Rd', 'Columbus, OH 43227']}","{'latitude': 39.9545783996582, 'longitude': -82.8765640258789}",$,39.9545784,-82.87656403
five-guys-columbus-13,3.5,10,"[{'alias': 'burgers', 'title': 'Burgers'}, {'alias': 'hotdogs', 'title': 'Fast Food'}]","{'address1': '5004 N Hamilton Rd', 'address2': '', 'address3': '', 'city': 'Columbus', 'zip_code': '43230', 'country': 'US', 'state': 'OH', 'display_address': ['5004 N Hamilton Rd', 'Columbus, OH 43230']}","{'latitude': 40.0585668251712, 'longitude': -82.8634095031964}",$$,40.05856683,-82.8634095
bernards-tavern-columbus,3.5,89,"[{'alias': 'pubs', 'title': 'Pubs'}, {'alias': 'burgers', 'title': 'Burgers'}, {'alias': 'sandwiches', 'title': 'Sandwiches'}]","{'address1': '630 N High St', 'address2': '', 'address3': '', 'city': 'Columbus', 'zip_code': '43215', 'country': 'US', 'state': 'OH', 'display_address': ['630 N High St', 'Columbus, OH 43215']}","{'latitude': 39.9753227233887, 'longitude': -83.0027847290039}",$$,39.97532272,-83.00278473
a-and-j-wingburger-pickerington,4,35,"[{'alias': 'korean', 'title': 'Korean'}, {'alias': 'burgers', 'title': 'Burgers'}]","{'address1': '1134 Hill Rd N', 'address2': '', 'address3': '', 'city': 'Pickerington', 'zip_code': '43147', 'country': 'US', 'state': 'OH', 'display_address': ['1134 Hill Rd N', 'Pickerington, OH 43147']}","{'latitude': 39.911285217006, 'longitude': -82.7784177297367}",$$,39.91128522,-82.77841773
harry-buffalo-westerville,3.5,86,"[{'alias': 'burgers', 'title': 'Burgers'}, {'alias': 'tradamerican', 'title': 'American (Traditional)'}, {'alias': 'bars', 'title': 'Bars'}]","{'address1': '6150 South Sunbury Rd', 'address2': '', 'address3': '', 'city': 'Westerville', 'zip_code': '43081', 'country': 'US', 'state': 'OH', 'display_address': ['6150 South Sunbury Rd', 'Westerville, OH 43081']}","{'latitude': 40.0845565795898, 'longitude': -82.8946151733398}",$$,40.08455658,-82.89461517
take-2-grill-at-hollywood-casino-columbus-2,3,6,"[{'alias': 'cafes', 'title': 'Cafes'}, {'alias': 'burgers', 'title': 'Burgers'}, {'alias': 'sandwiches', 'title': 'Sandwiches'}]","{'address1': '200 Georgesville Rd', 'address2': '', 'address3': '', 'city': 'Columbus', 'zip_code': '43228', 'country': 'US', 'state': 'OH', 'display_address': ['200 Georgesville Rd', 'Columbus, OH 43228']}","{'latitude': 39.9505395, 'longitude': -83.1071613}",$,39.9505395,-83.1071613
o-charleys-restaurant-and-bar-columbus-2,2.5,29,"[{'alias': 'tradamerican', 'title': 'American (Traditional)'}, {'alias': 'burgers', 'title': 'Burgers'}]","{'address1': '1650 Georgesville Square Dr', 'address2': None, 'address3': None, 'city': 'Columbus', 'zip_code': '43228', 'country': 'US', 'state': 'OH', 'display_address': ['1650 Georgesville Square Dr', 'Columbus, OH 43228']}","{'latitude': 39.920928, 'longitude': -83.11876}",$$,39.920928,-83.11876
white-castle-columbus-11,3.5,15,"[{'alias': 'burgers', 'title': 'Burgers'}, {'alias': 'hotdogs', 'title': 'Fast Food'}]","{'address1': '4525 Kenny Rd', 'address2': None, 'address3': None, 'city': 'Columbus', 'zip_code': '43220', 'country': 'US', 'state': 'OH', 'display_address': ['4525 Kenny Rd', 'Columbus, OH 43220']}","{'latitude': 40.05276, 'longitude': -83.05054}",$,40.05276,-83.05054
red-robin-gourmet-burgers-columbus-5,3,89,"[{'alias': 'burgers', 'title': 'Burgers'}, {'alias': 'tradamerican', 'title': 'American (Traditional)'}]","{'address1': '3977 Morse Crossing', 'address2': '', 'address3': '', 'city': 'Columbus', 'zip_code': '43219', 'country': 'US', 'state': 'OH', 'display_address': ['3977 Morse Crossing', 'Columbus, OH 43219']}","{'latitude': 40.05099, 'longitude': -82.92091}",$$,40.05099,-82.92091
seven-little-sliders-worthington-3,4,6,"[{'alias': 'foodtrucks', 'title': 'Food Trucks'}, {'alias': 'burgers', 'title': 'Burgers'}]","{'address1': '6795 Abbot Pl', 'address2': '', 'address3': None, 'city': 'Worthington', 'zip_code': '43085', 'country': 'US', 'state': 'OH', 'display_address': ['6795 Abbot Pl', 'Worthington, OH 43085']}","{'latitude': 40.1028365, 'longitude': -83.0147313}",$,40.1028365,-83.0147313
five-guys-columbus-10,3.5,41,"[{'alias': 'burgers', 'title': 'Burgers'}, {'alias': 'hotdogs', 'title': 'Fast Food'}]","{'address1': '1603 N High St', 'address2': '', 'address3': '', 'city': 'Columbus', 'zip_code': '43201', 'country': 'US', 'state': 'OH', 'display_address': ['1603 N High St', 'Columbus, OH 43201']}","{'latitude': 39.9949803, 'longitude': -83.0073802}",$,39.9949803,-83.0073802
hamiltons-pub-columbus,3.5,45,"[{'alias': 'pubs', 'title': 'Pubs'}, {'alias': 'sportsbars', 'title': 'Sports Bars'}, {'alias': 'burgers', 'title': 'Burgers'}]","{'address1': '4866 Thompson Rd', 'address2': None, 'address3': None, 'city': 'Columbus', 'zip_code': '43230', 'country': 'US', 'state': 'OH', 'display_address': ['4866 Thompson Rd', 'Columbus, OH 43230']}","{'latitude': 40.0654614403069, 'longitude': -82.8617124846558}",$,40.06546144,-82.86171248
ruby-tuesday-columbus-4,3,36,"[{'alias': 'burgers', 'title': 'Burgers'}, {'alias': 'tradamerican', 'title': 'American (Traditional)'}]","{'address1': '3730 W Dublin-Granville Rd', 'address2': '', 'address3': '', 'city': 'Columbus', 'zip_code': '43235', 'country': 'US', 'state': 'OH', 'display_address': ['3730 W Dublin-Granville Rd', 'Columbus, OH 43235']}","{'latitude': 40.0964775085449, 'longitude': -83.0895233154297}",$$,40.09647751,-83.08952332
street-thyme-columbus,4,25,"[{'alias': 'burgers', 'title': 'Burgers'}, {'alias': 'foodtrucks', 'title': 'Food Trucks'}]","{'address1': '', 'address2': '', 'address3': '', 'city': 'Columbus', 'zip_code': '43215', 'country': 'US', 'state': 'OH', 'display_address': ['Columbus, OH 43215']}","{'latitude': 39.9669570922852, 'longitude': -83.012939453125}",$$,39.96695709,-83.01293945
o-charleys-restaurant-and-bar-columbus-4,2.5,45,"[{'alias': 'tradamerican', 'title': 'American (Traditional)'}, {'alias': 'burgers', 'title': 'Burgers'}]","{'address1': '4850 Morse Rd', 'address2': '', 'address3': '', 'city': 'Columbus', 'zip_code': '43230', 'country': 'US', 'state': 'OH', 'display_address': ['4850 Morse Rd', 'Columbus, OH 43230']}","{'latitude': 40.05576, 'longitude': -82.861818}",$$,40.05576,-82.861818
white-castle-columbus-17,2.5,12,"[{'alias': 'burgers', 'title': 'Burgers'}, {'alias': 'hotdogs', 'title': 'Fast Food'}]","{'address1': '1435 E Dublin Granville Rd', 'address2': None, 'address3': None, 'city': 'Columbus', 'zip_code': '43229', 'country': 'US', 'state': 'OH', 'display_address': ['1435 E Dublin Granville Rd', 'Columbus, OH 43229']}","{'latitude': 40.0868110656738, 'longitude': -82.9781951904297}",$,40.08681107,-82.97819519
white-castle-columbus-23,2.5,4,"[{'alias': 'burgers', 'title': 'Burgers'}, {'alias': 'hotdogs', 'title': 'Fast Food'}]","{'address1': '1555 W Broad St', 'address2': '', 'address3': '', 'city': 'Columbus', 'zip_code': '43222', 'country': 'US', 'state': 'OH', 'display_address': ['1555 W Broad St', 'Columbus, OH 43222']}","{'latitude': 39.9570667, 'longitude': -83.0419343}",$,39.9570667,-83.0419343
red-robin-gourmet-burgers-pickerington,3.5,23,"[{'alias': 'burgers', 'title': 'Burgers'}, {'alias': 'tradamerican', 'title': 'American (Traditional)'}]","{'address1': '1720 Hill Rd N', 'address2': None, 'address3': None, 'city': 'Pickerington', 'zip_code': '43147', 'country': 'US', 'state': 'OH', 'display_address': ['1720 Hill Rd N', 'Pickerington, OH 43147']}","{'latitude': 39.9246559143066, 'longitude': -82.7848892211914}",$,39.92465591,-82.78488922
white-castle-columbus-22,2,4,"[{'alias': 'hotdogs', 'title': 'Fast Food'}, {'alias': 'burgers', 'title': 'Burgers'}]","{'address1': '801 E 5th Ave', 'address2': None, 'address3': None, 'city': 'Columbus', 'zip_code': '43201', 'country': 'US', 'state': 'OH', 'display_address': ['801 E 5th Ave', 'Columbus, OH 43201']}","{'latitude': 39.98594, 'longitude': -82.98331}",$,39.98594,-82.98331
five-guys-columbus-11,3.5,31,"[{'alias': 'burgers', 'title': 'Burgers'}, {'alias': 'hotdogs', 'title': 'Fast Food'}]","{'address1': '220 Easton Town Ctr', 'address2': '', 'address3': '', 'city': 'Columbus', 'zip_code': '43219', 'country': 'US', 'state': 'OH', 'display_address': ['220 Easton Town Ctr', 'Columbus, OH 43219']}","{'latitude': 40.0503949, 'longitude': -82.9157882}",$,40.0503949,-82.9157882
ram-restaurant-and-brewery-dublin,3.5,30,"[{'alias': 'breweries', 'title': 'Breweries'}, {'alias': 'burgers', 'title': 'Burgers'}, {'alias': 'tradamerican', 'title': 'American (Traditional)'}]","{'address1': '6632 Longshore St', 'address2': '', 'address3': None, 'city': 'Dublin', 'zip_code': '43017', 'country': 'US', 'state': 'OH', 'display_address': ['6632 Longshore St', 'Dublin, OH 43017']}","{'latitude': 40.1030992317248, 'longitude': -83.1096925}",$$,40.10309923,-83.1096925
burger-king-columbus-32,1.5,9,"[{'alias': 'burgers', 'title': 'Burgers'}]","{'address1': '3330 Indianola Ave', 'address2': '', 'address3': '', 'city': 'Columbus', 'zip_code': '43214', 'country': 'US', 'state': 'OH', 'display_address': ['3330 Indianola Ave', 'Columbus, OH 43214']}","{'latitude': 40.0320282, 'longitude': -83.0004501}",$,40.0320282,-83.0004501
wendys-columbus-62,1.5,4,"[{'alias': 'burgers', 'title': 'Burgers'}, {'alias': 'hotdogs', 'title': 'Fast Food'}]","{'address1': '666 E 5th Ave', 'address2': None, 'address3': None, 'city': 'Columbus', 'zip_code': '43201', 'country': 'US', 'state': 'OH', 'display_address': ['666 E 5th Ave', 'Columbus, OH 43201']}","{'latitude': 39.98687, 'longitude': -82.98729}",No recorded price,39.98687,-82.98729
rallys-columbus-9,5,2,"[{'alias': 'burgers', 'title': 'Burgers'}]","{'address1': '1097 Cleveland Ave', 'address2': '', 'address3': '', 'city': 'Columbus', 'zip_code': '43201', 'country': 'US', 'state': 'OH', 'display_address': ['1097 Cleveland Ave', 'Columbus, OH 43201']}","{'latitude': 39.986759185791, 'longitude': -82.9893417358398}",$,39.98675919,-82.98934174
pharoahs-pizza-and-stromboli-columbus-3,2.5,36,"[{'alias': 'pizza', 'title': 'Pizza'}, {'alias': 'burgers', 'title': 'Burgers'}, {'alias': 'tradamerican', 'title': 'American (Traditional)'}]","{'address1': '2577 Indianola Ave', 'address2': '', 'address3': '', 'city': 'Columbus', 'zip_code': '43202', 'country': 'US', 'state': 'OH', 'display_address': ['2577 Indianola Ave', 'Columbus, OH 43202']}","{'latitude': 40.016, 'longitude': -83.00233}",$,40.016,-83.00233
gahanna-grill-gahanna-2,3.5,76,"[{'alias': 'burgers', 'title': 'Burgers'}, {'alias': 'tradamerican', 'title': 'American (Traditional)'}, {'alias': 'sandwiches', 'title': 'Sandwiches'}]","{'address1': '82 Granville St', 'address2': '', 'address3': '', 'city': 'Gahanna', 'zip_code': '43230', 'country': 'US', 'state': 'OH', 'display_address': ['82 Granville St', 'Gahanna, OH 43230']}","{'latitude': 40.019115447998, 'longitude': -82.8785781860352}",$$,40.01911545,-82.87857819
white-castle-columbus-4,3,18,"[{'alias': 'burgers', 'title': 'Burgers'}, {'alias': 'hotdogs', 'title': 'Fast Food'}]","{'address1': '3615 S High St', 'address2': '', 'address3': '', 'city': 'Columbus', 'zip_code': '43207', 'country': 'US', 'state': 'OH', 'display_address': ['3615 S High St', 'Columbus, OH 43207']}","{'latitude': 39.88835, 'longitude': -82.99862}",$,39.88835,-82.99862
steak-n-shake-columbus-12,2,28,"[{'alias': 'burgers', 'title': 'Burgers'}, {'alias': 'diners', 'title': 'Diners'}]","{'address1': '1700 Georgesville Square Dr', 'address2': '', 'address3': '', 'city': 'Columbus', 'zip_code': '43228', 'country': 'US', 'state': 'OH', 'display_address': ['1700 Georgesville Square Dr', 'Columbus, OH 43228']}","{'latitude': 39.919376373291, 'longitude': -83.1168670654297}",$,39.91937637,-83.11686707
five-guys-columbus-7,3.5,25,"[{'alias': 'burgers', 'title': 'Burgers'}, {'alias': 'hotdogs', 'title': 'Fast Food'}]","{'address1': '763 Bethel Rd', 'address2': '', 'address3': '', 'city': 'Columbus', 'zip_code': '43214', 'country': 'US', 'state': 'OH', 'display_address': ['763 Bethel Rd', 'Columbus, OH 43214']}","{'latitude': 40.062622, 'longitude': -83.0406553}",$,40.062622,-83.0406553
mcdonalds-columbus-20,3,4,"[{'alias': 'burgers', 'title': 'Burgers'}, {'alias': 'hotdogs', 'title': 'Fast Food'}]","{'address1': '619 Harrisburg Pike', 'address2': None, 'address3': None, 'city': 'Columbus', 'zip_code': '43223', 'country': 'US', 'state': 'OH', 'display_address': ['619 Harrisburg Pike', 'Columbus, OH 43223']}","{'latitude': 39.94508, 'longitude': -83.03684}",$,39.94508,-83.03684
white-castle-columbus-7,3.5,12,"[{'alias': 'hotdogs', 'title': 'Fast Food'}, {'alias': 'burgers', 'title': 'Burgers'}]","{'address1': '6791 E Broad St', 'address2': '', 'address3': '', 'city': 'Columbus', 'zip_code': '43213', 'country': 'US', 'state': 'OH', 'display_address': ['6791 E Broad St', 'Columbus, OH 43213']}","{'latitude': 39.98124, 'longitude': -82.82298}",$,39.98124,-82.82298
steak-n-shake-columbus-9,2,46,"[{'alias': 'burgers', 'title': 'Burgers'}, {'alias': 'diners', 'title': 'Diners'}]","{'address1': '4047 Morse Crossing', 'address2': '', 'address3': '', 'city': 'Columbus', 'zip_code': '43219', 'country': 'US', 'state': 'OH', 'display_address': ['4047 Morse Crossing', 'Columbus, OH 43219']}","{'latitude': 40.05278, 'longitude': -82.92066}",$,40.05278,-82.92066
white-castle-columbus-10,3.5,4,"[{'alias': 'burgers', 'title': 'Burgers'}, {'alias': 'hotdogs', 'title': 'Fast Food'}]","{'address1': '3540 W Broad St', 'address2': '', 'address3': '', 'city': 'Columbus', 'zip_code': '43228', 'country': 'US', 'state': 'OH', 'display_address': ['3540 W Broad St', 'Columbus, OH 43228']}","{'latitude': 39.9542694, 'longitude': -83.0952682}",$,39.9542694,-83.0952682
steak-n-shake-columbus-3,2.5,19,"[{'alias': 'burgers', 'title': 'Burgers'}, {'alias': 'diners', 'title': 'Diners'}]","{'address1': '5488 Cleveland Ave', 'address2': '', 'address3': '', 'city': 'Columbus', 'zip_code': '43231', 'country': 'US', 'state': 'OH', 'display_address': ['5488 Cleveland Ave', 'Columbus, OH 43231']}","{'latitude': 40.08202, 'longitude': -82.94999}",$,40.08202,-82.94999
nastys-sports-bar-and-gril-hilliard,3.5,69,"[{'alias': 'burgers', 'title': 'Burgers'}, {'alias': 'sportsbars', 'title': 'Sports Bars'}, {'alias': 'tradamerican', 'title': 'American (Traditional)'}]","{'address1': '4561 Scioto Darby Rd', 'address2': '', 'address3': '', 'city': 'Hilliard', 'zip_code': '43026', 'country': 'US', 'state': 'OH', 'display_address': ['4561 Scioto Darby Rd', 'Hilliard, OH 43026']}","{'latitude': 40.0179946, 'longitude': -83.1360328}",$,40.0179946,-83.1360328
applebees-columbus-22,2.5,15,"[{'alias': 'tradamerican', 'title': 'American (Traditional)'}, {'alias': 'sportsbars', 'title': 'Sports Bars'}, {'alias': 'burgers', 'title': 'Burgers'}]","{'address1': '1590 Georgesville Square Dr', 'address2': None, 'address3': None, 'city': 'Columbus', 'zip_code': '43228', 'country': 'US', 'state': 'OH', 'display_address': ['1590 Georgesville Square Dr', 'Columbus, OH 43228']}","{'latitude': 39.921276, 'longitude': -83.121819}",$$,39.921276,-83.121819
rallys-hamburgers-columbus-4,2,18,"[{'alias': 'burgers', 'title': 'Burgers'}, {'alias': 'hotdogs', 'title': 'Fast Food'}]","{'address1': '2556 N High St', 'address2': '', 'address3': '', 'city': 'Columbus', 'zip_code': '43202', 'country': 'US', 'state': 'OH', 'display_address': ['2556 N High St', 'Columbus, OH 43202']}","{'latitude': 40.0143699645996, 'longitude': -83.0108795166016}",$,40.01436996,-83.01087952
mcdonalds-columbus,1.5,2,"[{'alias': 'hotdogs', 'title': 'Fast Food'}, {'alias': 'burgers', 'title': 'Burgers'}]","{'address1': '2441 Lockbourne Rd', 'address2': '', 'address3': '', 'city': 'Columbus', 'zip_code': '43207', 'country': 'US', 'state': 'OH', 'display_address': ['2441 Lockbourne Rd', 'Columbus, OH 43207']}","{'latitude': 39.914863, 'longitude': -82.966037}",No recorded price,39.914863,-82.966037
red-robin-gourmet-burgers-columbus-2,3,71,"[{'alias': 'burgers', 'title': 'Burgers'}, {'alias': 'tradamerican', 'title': 'American (Traditional)'}]","{'address1': '1021 Gemini Place', 'address2': '', 'address3': '', 'city': 'Columbus', 'zip_code': '43240', 'country': 'US', 'state': 'OH', 'display_address': ['1021 Gemini Place', 'Columbus, OH 43240']}","{'latitude': 40.1466, 'longitude': -82.99005}",$$,40.1466,-82.99005
smashburger-westerville-2,3.5,72,"[{'alias': 'burgers', 'title': 'Burgers'}]","{'address1': '552 S State St', 'address2': '', 'address3': '', 'city': 'Westerville', 'zip_code': '43081', 'country': 'US', 'state': 'OH', 'display_address': ['552 S State St', 'Westerville, OH 43081']}","{'latitude': 40.1114284921987, 'longitude': -82.925325049331}",$,40.11142849,-82.92532505
smashburger-powell-2,3.5,75,"[{'alias': 'burgers', 'title': 'Burgers'}]","{'address1': '8715 Owenfield Dr', 'address2': '', 'address3': '', 'city': 'Powell', 'zip_code': '43065', 'country': 'US', 'state': 'OH', 'display_address': ['8715 Owenfield Dr', 'Powell, OH 43065']}","{'latitude': 40.16461, 'longitude': -83.02063}",$,40.16461,-83.02063
mcdonalds-columbus-58,1.5,3,"[{'alias': 'burgers', 'title': 'Burgers'}, {'alias': 'hotdogs', 'title': 'Fast Food'}]","{'address1': '1589 W Broad St', 'address2': '', 'address3': '', 'city': 'Columbus', 'zip_code': '43222', 'country': 'US', 'state': 'OH', 'display_address': ['1589 W Broad St', 'Columbus, OH 43222']}","{'latitude': 39.956501, 'longitude': -83.0422516}",$,39.956501,-83.0422516
wendys-columbus-40,4,4,"[{'alias': 'burgers', 'title': 'Burgers'}, {'alias': 'hotdogs', 'title': 'Fast Food'}]","{'address1': '799 S High St', 'address2': '', 'address3': '', 'city': 'Columbus', 'zip_code': '43206', 'country': 'US', 'state': 'OH', 'display_address': ['799 S High St', 'Columbus, OH 43206']}","{'latitude': 39.9457130432129, 'longitude': -82.9979629516602}",$,39.94571304,-82.99796295
thurman-to-go-reynoldsburg,3.5,35,"[{'alias': 'hotdogs', 'title': 'Fast Food'}, {'alias': 'burgers', 'title': 'Burgers'}]","{'address1': '14950 E Broad St', 'address2': '', 'address3': '', 'city': 'Reynoldsburg', 'zip_code': '43068', 'country': 'US', 'state': 'OH', 'display_address': ['14950 E Broad St', 'Reynoldsburg, OH 43068']}","{'latitude': 39.9882540610727, 'longitude': -82.7669444652136}",$$,39.98825406,-82.76694447
white-castle-columbus-19,3,3,"[{'alias': 'burgers', 'title': 'Burgers'}, {'alias': 'hotdogs', 'title': 'Fast Food'}]","{'address1': '1111 S High St', 'address2': None, 'address3': None, 'city': 'Columbus', 'zip_code': '43206', 'country': 'US', 'state': 'OH', 'display_address': ['1111 S High St', 'Columbus, OH 43206']}","{'latitude': 39.9388999, 'longitude': -82.99665}",$,39.9388999,-82.99665
smashburger-franklin,3.5,78,"[{'alias': 'burgers', 'title': 'Burgers'}]","{'address1': '109 N Hamilton Rd', 'address2': None, 'address3': '', 'city': 'Franklin', 'zip_code': '43230', 'country': 'US', 'state': 'OH', 'display_address': ['109 N Hamilton Rd', 'Franklin, OH 43230']}","{'latitude': 40.0199732, 'longitude': -82.8668356}",$,40.0199732,-82.8668356
wendys-columbus-53,3,16,"[{'alias': 'burgers', 'title': 'Burgers'}, {'alias': 'hotdogs', 'title': 'Fast Food'}]","{'address1': '3592 N High St', 'address2': None, 'address3': None, 'city': 'Columbus', 'zip_code': '43214', 'country': 'US', 'state': 'OH', 'display_address': ['3592 N High St', 'Columbus, OH 43214']}","{'latitude': 40.035467, 'longitude': -83.016495}",$,40.035467,-83.016495
johnny-rockets-columbus-2,2,13,"[{'alias': 'sandwiches', 'title': 'Sandwiches'}, {'alias': 'burgers', 'title': 'Burgers'}, {'alias': 'tradamerican', 'title': 'American (Traditional)'}]","{'address1': '4600 International Gateway', 'address2': '', 'address3': 'Columbus International Airport CMH', 'city': 'Columbus', 'zip_code': '43219', 'country': 'US', 'state': 'OH', 'display_address': ['4600 International Gateway', 'Columbus International Airport CMH', 'Columbus, OH 43219']}","{'latitude': 39.997559, 'longitude': -82.890984}",$$,39.997559,-82.890984
five-guys-columbus-6,3.5,18,"[{'alias': 'burgers', 'title': 'Burgers'}, {'alias': 'hotdogs', 'title': 'Fast Food'}]","{'address1': '1539 Hilliard Rome Rd', 'address2': '', 'address3': '', 'city': 'Columbus', 'zip_code': '43228', 'country': 'US', 'state': 'OH', 'display_address': ['1539 Hilliard Rome Rd', 'Columbus, OH 43228']}","{'latitude': 39.983125, 'longitude': -83.152183}",$$,39.983125,-83.152183
fracassos-village-pizza-galena,4,13,"[{'alias': 'pizza', 'title': 'Pizza'}, {'alias': 'burgers', 'title': 'Burgers'}, {'alias': 'sandwiches', 'title': 'Sandwiches'}]","{'address1': '3699 S State Rt 605', 'address2': '', 'address3': '', 'city': 'Galena', 'zip_code': '43021', 'country': 'US', 'state': 'OH', 'display_address': ['3699 S State Rt 605', 'Galena, OH 43021']}","{'latitude': 40.16586, 'longitude': -82.80718}",$$,40.16586,-82.80718
mcdonalds-columbus-39,4,5,"[{'alias': 'burgers', 'title': 'Burgers'}, {'alias': 'hotdogs', 'title': 'Fast Food'}]","{'address1': '2750 Bethel Rd', 'address2': '', 'address3': '', 'city': 'Columbus', 'zip_code': '43220', 'country': 'US', 'state': 'OH', 'display_address': ['2750 Bethel Rd', 'Columbus, OH 43220']}","{'latitude': 40.065544128418, 'longitude': -83.0919494628906}",$,40.06554413,-83.09194946
mcdonalds-columbus-23,3,22,"[{'alias': 'hotdogs', 'title': 'Fast Food'}, {'alias': 'burgers', 'title': 'Burgers'}]","{'address1': '910 W 5th Ave', 'address2': '', 'address3': '', 'city': 'Columbus', 'zip_code': '43212', 'country': 'US', 'state': 'OH', 'display_address': ['910 W 5th Ave', 'Columbus, OH 43212']}","{'latitude': 39.9886665344238, 'longitude': -83.0305633544922}",$,39.98866653,-83.03056335
mcdonalds-columbus-60,1,22,"[{'alias': 'hotdogs', 'title': 'Fast Food'}, {'alias': 'burgers', 'title': 'Burgers'}]","{'address1': '821 E 17th Ave', 'address2': '', 'address3': '', 'city': 'Columbus', 'zip_code': '43211', 'country': 'US', 'state': 'OH', 'display_address': ['821 E 17th Ave', 'Columbus, OH 43211']}","{'latitude': 40.0004234313965, 'longitude': -82.9857711791992}",$,40.00042343,-82.98577118
wendys-columbus-41,2.5,2,"[{'alias': 'burgers', 'title': 'Burgers'}, {'alias': 'hotdogs', 'title': 'Fast Food'}]","{'address1': '793 W State St', 'address2': None, 'address3': None, 'city': 'Columbus', 'zip_code': '43222', 'country': 'US', 'state': 'OH', 'display_address': ['793 W State St', 'Columbus, OH 43222']}","{'latitude': 39.95736, 'longitude': -83.0213799}",$,39.95736,-83.0213799
wendys-columbus-51,3,4,"[{'alias': 'burgers', 'title': 'Burgers'}, {'alias': 'hotdogs', 'title': 'Fast Food'}]","{'address1': '1490 N Cassady Ave', 'address2': None, 'address3': None, 'city': 'Columbus', 'zip_code': '43219', 'country': 'US', 'state': 'OH', 'display_address': ['1490 N Cassady Ave', 'Columbus, OH 43219']}","{'latitude': 40.00111, 'longitude': -82.92935}",$,40.00111,-82.92935
steak-n-shake-columbus-8,2,13,"[{'alias': 'burgers', 'title': 'Burgers'}, {'alias': 'diners', 'title': 'Diners'}]","{'address1': '5960 East Main St', 'address2': '', 'address3': '', 'city': 'Columbus', 'zip_code': '43213', 'country': 'US', 'state': 'OH', 'display_address': ['5960 East Main St', 'Columbus, OH 43213']}","{'latitude': 39.955314, 'longitude': -82.8401231}",$,39.955314,-82.8401231
teds-montana-grill-dublin,3.5,90,"[{'alias': 'burgers', 'title': 'Burgers'}, {'alias': 'tradamerican', 'title': 'American (Traditional)'}, {'alias': 'steak', 'title': 'Steakhouses'}]","{'address1': '6195 Sawmill Rd', 'address2': '', 'address3': '', 'city': 'Dublin', 'zip_code': '43017', 'country': 'US', 'state': 'OH', 'display_address': ['6195 Sawmill Rd', 'Dublin, OH 43017']}","{'latitude': 40.0939077883959, 'longitude': -83.0917963385582}",$$,40.09390779,-83.09179634
steak-n-shake-columbus-2,2.5,16,"[{'alias': 'burgers', 'title': 'Burgers'}, {'alias': 'diners', 'title': 'Diners'}]","{'address1': '2441 S Hamilton Rd', 'address2': '', 'address3': '', 'city': 'Columbus', 'zip_code': '43232', 'country': 'US', 'state': 'OH', 'display_address': ['2441 S Hamilton Rd', 'Columbus, OH 43232']}","{'latitude': 39.92507, 'longitude': -82.88045}",$,39.92507,-82.88045
wendys-columbus-54,3.5,8,"[{'alias': 'burgers', 'title': 'Burgers'}, {'alias': 'hotdogs', 'title': 'Fast Food'}]","{'address1': '1483 Olentangy River Rd', 'address2': None, 'address3': None, 'city': 'Columbus', 'zip_code': '43212', 'country': 'US', 'state': 'OH', 'display_address': ['1483 Olentangy River Rd', 'Columbus, OH 43212']}","{'latitude': 39.9903, 'longitude': -83.02648}",$,39.9903,-83.02648
rallys-columbus,2,3,"[{'alias': 'burgers', 'title': 'Burgers'}]","{'address1': '1454 Parsons Ave', 'address2': '', 'address3': '', 'city': 'Columbus', 'zip_code': '43207', 'country': 'US', 'state': 'OH', 'display_address': ['1454 Parsons Ave', 'Columbus, OH 43207']}","{'latitude': 39.93363, 'longitude': -82.98353}",$,39.93363,-82.98353
mcdonalds-columbus-12,1.5,13,"[{'alias': 'hotdogs', 'title': 'Fast Food'}, {'alias': 'burgers', 'title': 'Burgers'}]","{'address1': '4250 International Gateway', 'address2': '', 'address3': '', 'city': 'Columbus', 'zip_code': '43219', 'country': 'US', 'state': 'OH', 'display_address': ['4250 International Gateway', 'Columbus, OH 43219']}","{'latitude': 39.998864, 'longitude': -82.8946459}",$,39.998864,-82.8946459
culvers-reynoldsburg,4.5,28,"[{'alias': 'tradamerican', 'title': 'American (Traditional)'}, {'alias': 'burgers', 'title': 'Burgers'}, {'alias': 'hotdogs', 'title': 'Fast Food'}]","{'address1': '1912 Sr 256', 'address2': '', 'address3': None, 'city': 'Reynoldsburg', 'zip_code': '43068', 'country': 'US', 'state': 'OH', 'display_address': ['1912 Sr 256', 'Reynoldsburg, OH 43068']}","{'latitude': 39.944852512507, 'longitude': -82.794649569358}",$,39.94485251,-82.79464957
mcdonalds-columbus-24,1.5,3,"[{'alias': 'hotdogs', 'title': 'Fast Food'},